HEB_NAME,LAT,LONG,HEB_WIKI_LINK
אעצם,31.296499678549367,34.903596656729,https://he.wikipedia.org/wiki/אעצם
אבו סנאן,32.95891,35.17152,https://he.wikipedia.org/wiki/אבו_סנאן
אבו תלול,31.14229,34.91424,https://he.wikipedia.org/wiki/אבו_תלול
אדמית,33.07971,35.21103,https://he.wikipedia.org/wiki/אדמית
עדנים,32.13902,34.90798,https://he.wikipedia.org/wiki/עדנים
אדרת,31.66071,34.99564,https://he.wikipedia.org/wiki/אדרת
אדירים,32.5491,35.2719,https://he.wikipedia.org/wiki/אדירים
עדי,32.78486,35.17282,https://he.wikipedia.org/wiki/עדי
אדורה,31.55315,35.01839,https://he.wikipedia.org/wiki/אדורה
אפיניש,31.316439141319577,34.997244306867785,https://he.wikipedia.org/wiki/אפיניש
אפק,32.84589,35.11367,https://he.wikipedia.org/wiki/אפק
אפיק,32.78010627276412,35.701145854505775,https://he.wikipedia.org/wiki/אפיק_(קיבוץ)
אפיקים,32.68046,35.57776,https://he.wikipedia.org/wiki/אפיקים
עפולה,32.60907,35.2892,https://he.wikipedia.org/wiki/עפולה
עגור,31.698531665373697,34.91143498062876,https://he.wikipedia.org/wiki/עגור_(מושב)
אחווה,31.74328,34.7688,https://he.wikipedia.org/wiki/אחווה_(מרכז_כפרי)
אחיעזר,31.98133,34.87213,https://he.wikipedia.org/wiki/אחיעזר
אחיהוד,32.90836,35.17137,https://he.wikipedia.org/wiki/אחיהוד
אחיסמך,31.93503,34.90739,https://he.wikipedia.org/wiki/אחיסמך
אחיטוב,32.38873,34.99072,https://he.wikipedia.org/wiki/אחיטוב
אחוזם,31.55385,34.77009,https://he.wikipedia.org/wiki/אחוזם
אחוזת ברק,32.64187,35.33834,https://he.wikipedia.org/wiki/אחוזת_ברק
עכו,32.92814,35.07647,https://he.wikipedia.org/wiki/עכו
א-סייד,31.28252,34.91505,https://he.wikipedia.org/wiki/א-סייד
עלי זהב,32.072307359163,35.06349987991041,https://he.wikipedia.org/wiki/עלי_זהב
אלפי מנשה,32.17265,35.01179,https://he.wikipedia.org/wiki/אלפי_מנשה
אלון הגליל,32.75742,35.22089,https://he.wikipedia.org/wiki/אלון_הגליל
אלון שבות,31.65365938289113,35.12613989047807,https://he.wikipedia.org/wiki/אלון_שבות
אלוני אבא,32.73016,35.17138,https://he.wikipedia.org/wiki/אלוני_אבא
אלוני הבשן,33.04410781139195,35.83810898466913,https://he.wikipedia.org/wiki/אלוני_הבשן
אלוני יצחק,32.51027,35.00276,https://he.wikipedia.org/wiki/אלוני_יצחק
אלונים,32.72104182521638,35.14472027404406,https://he.wikipedia.org/wiki/אלונים
עלמה,33.0516,35.49965,https://he.wikipedia.org/wiki/עלמה
אלמגור,32.91246,35.6022,https://he.wikipedia.org/wiki/אלמגור
אלמוג,31.789183557480637,35.461733177961975,https://he.wikipedia.org/wiki/אלמוג_(קיבוץ)
עלמון,31.830035269624467,35.29395833075691,https://he.wikipedia.org/wiki/עלמון
עלומים,31.45232,34.51384,https://he.wikipedia.org/wiki/עלומים_(קיבוץ)
אלומה,31.65177,34.74338,https://he.wikipedia.org/wiki/אלומה_(יישוב)
אלומות,32.70654,35.54622,https://he.wikipedia.org/wiki/אלומות
אמציה,31.53257,34.9143,https://he.wikipedia.org/wiki/אמציה_(מושב)
עמיר,33.17777631046802,35.62005926087235,https://he.wikipedia.org/wiki/עמיר
אמירים,32.93792,35.45187,https://he.wikipedia.org/wiki/אמירים
עמיעד,32.93035,35.54052,https://he.wikipedia.org/wiki/עמיעד
עמיעוז,31.24833,34.41329,https://he.wikipedia.org/wiki/עמיעוז
עמיחי,32.044693073753194,35.327478364267975,https://he.wikipedia.org/wiki/עמיחי_(יישוב)
עמינדב,31.75212,35.14733,https://he.wikipedia.org/wiki/עמינדב
עמיקם,32.56348,35.02078,https://he.wikipedia.org/wiki/עמיקם
אמנון,32.90459,35.57151,https://he.wikipedia.org/wiki/אמנון_(מושב)
עמקה,32.97987,35.16331,https://he.wikipedia.org/wiki/עמקה
עמוקה,32.99853,35.52427,https://he.wikipedia.org/wiki/עמוקה
אניעם,32.95822,35.73889,https://he.wikipedia.org/wiki/אניעם
ערערה,32.49791435654475,35.09680682629664,https://he.wikipedia.org/wiki/ערערה
ערערה בנגב,31.16046,35.02274,https://he.wikipedia.org/wiki/ערערה_בנגב
ערד,31.25882,35.21282,https://he.wikipedia.org/wiki/ערד
ערב אל-עראמשה,33.08781,35.22836,https://he.wikipedia.org/wiki/ערב_אל-עראמשה
ארבל,32.81208246615042,35.486000006642556,https://he.wikipedia.org/wiki/ארבל_(מושב)
ארגמן,32.17259230898911,35.523108998984306,https://he.wikipedia.org/wiki/ארגמן_(מושב)
אריאל,32.10635,35.1892,https://he.wikipedia.org/wiki/אריאל
ערב א-נעים,32.8878380741881,35.290075600485466,https://he.wikipedia.org/wiki/ערב_א-נעים
עראבה,32.85093,35.33707,https://he.wikipedia.org/wiki/עראבה
ארסוף,32.21324,34.81573,https://he.wikipedia.org/wiki/ארסוף
ערוגות,31.73503,34.77016,https://he.wikipedia.org/wiki/ערוגות
עשהאל,31.37324120186319,35.043862453563335,https://he.wikipedia.org/wiki/עשהאל
עשרת,31.82508,34.74739,https://he.wikipedia.org/wiki/עשרת
אשלים,30.96409,34.69934,https://he.wikipedia.org/wiki/אשלים
אשדוד,31.79213,34.64966,https://he.wikipedia.org/wiki/אשדוד
אשדות יעקב איחוד,32.65843,35.58117,https://he.wikipedia.org/wiki/אשדות_יעקב_איחוד
אשדות יעקב מאוחד,32.661899791165474,35.58396558089034,https://he.wikipedia.org/wiki/אשדות_יעקב_מאוחד
אשרת,32.97245,35.15513,https://he.wikipedia.org/wiki/אשרת_(יישוב)
אשקלון,31.66926,34.57149,https://he.wikipedia.org/wiki/אשקלון
עטרת,32.00119162828481,35.17642499850047,https://he.wikipedia.org/wiki/עטרת
עתלית,32.68889,34.94236,https://he.wikipedia.org/wiki/עתלית
אטרש,31.26415204500599,34.94935853431467,https://he.wikipedia.org/wiki/אטרש
עצמון-שגב,32.86720130604475,35.25215336878934,https://he.wikipedia.org/wiki/עצמון-שגב
עבדון,33.04789,35.17995,https://he.wikipedia.org/wiki/עבדון
אבנת,31.679180908146147,35.435303880232276,https://he.wikipedia.org/wiki/אבנת
אביאל,32.53195,34.9936,https://he.wikipedia.org/wiki/אביאל
אביעזר,31.68161,35.01767,https://he.wikipedia.org/wiki/אביעזר
אביגיל,31.403611,35.140556,https://he.wikipedia.org/wiki/אביגיל_(יישוב)
אביגדור,31.71083,34.7444,https://he.wikipedia.org/wiki/אביגדור
אביחיל,32.3504,34.87119,https://he.wikipedia.org/wiki/אביחיל
אביטל,32.55738531242271,35.30655879931762,https://he.wikipedia.org/wiki/אביטל
אביבים,33.08892,35.47228,https://he.wikipedia.org/wiki/אביבים
אבני איתן,32.82291,35.76669,https://he.wikipedia.org/wiki/אבני_איתן
אבני חפץ,32.28562010853817,35.073594862594014,https://he.wikipedia.org/wiki/אבני_חפץ
אבשלום,31.19531,34.33076,https://he.wikipedia.org/wiki/אבשלום_(יישוב)
אבטליון,32.83709,35.34893,https://he.wikipedia.org/wiki/אבטליון_(יישוב)
עיינות,31.915530685426234,34.76886579102517,https://he.wikipedia.org/wiki/עיינות
איילת השחר,33.02224,35.57716,https://he.wikipedia.org/wiki/איילת_השחר_(קיבוץ)
עזריה,31.89137,34.91044,https://he.wikipedia.org/wiki/עזריה
אזור,32.0243,34.80632,https://he.wikipedia.org/wiki/אזור
עזריאל,32.26137,34.97006,https://he.wikipedia.org/wiki/עזריאל_(מושב)
עזריקם,31.7507,34.69933,https://he.wikipedia.org/wiki/עזריקם
בחן,32.35082,35.01862,https://he.wikipedia.org/wiki/בחן
בלפוריה,32.63065837500993,35.29612045020816,https://he.wikipedia.org/wiki/בלפוריה
באקה אל-גרבייה,32.41806,35.04312,https://he.wikipedia.org/wiki/באקה_אל-גרבייה
בר גיורא,31.72973,35.07296,https://he.wikipedia.org/wiki/בר_גיורא_(מושב)
בר יוחאי,32.99848,35.44419,https://he.wikipedia.org/wiki/בר_יוחאי_(יישוב)
ברעם,33.05886407795147,35.43422341299659,https://he.wikipedia.org/wiki/ברעם
ברק,32.54272155698582,35.26498321164152,https://he.wikipedia.org/wiki/ברק
ברקת,32.01839,34.94416,https://he.wikipedia.org/wiki/ברקת_(מושב)
ברקן,32.108809987398 35.10519501891198,https://he.wikipedia.org/wiki/ברקן
ברקאי,32.4751,35.02966,https://he.wikipedia.org/wiki/ברקאי
"בסמ""ה",32.53182321438513,35.10490179036211,"https://he.wikipedia.org/wiki/בסמ""ה"
בסמת טבעון,32.73898,35.15716,https://he.wikipedia.org/wiki/בסמת_טבעון
בת עין,31.65756,35.10345,https://he.wikipedia.org/wiki/בת_עין
בת הדר,31.64773,34.59661,https://he.wikipedia.org/wiki/בת_הדר
בת חפר,32.33307,35.01272,https://he.wikipedia.org/wiki/בת_חפר
בת חן,32.36055,34.87197,https://he.wikipedia.org/wiki/בת_חן
בת שלמה,32.60031,35.00395,https://he.wikipedia.org/wiki/בת_שלמה
בת ים,32.02379,34.75185,https://he.wikipedia.org/wiki/בת_ים
בצרה,32.21412,34.87676,https://he.wikipedia.org/wiki/בצרה_(ישראל)
באר מילכה,30.932995636400822,34.40714471687039,https://he.wikipedia.org/wiki/באר_מילכה
באר אורה,29.71053,34.98019,https://he.wikipedia.org/wiki/באר_אורה
באר שבע,31.25181,34.7913,https://he.wikipedia.org/wiki/באר_שבע
באר טוביה,31.73343715033842,34.72359680460241,https://he.wikipedia.org/wiki/באר_טוביה
באר יעקב,31.93864,34.83749,https://he.wikipedia.org/wiki/באר_יעקב
בארי,31.424261405325243,34.49087065343508,https://he.wikipedia.org/wiki/בארי_(קיבוץ)
בארות יצחק,32.0403,34.91068,https://he.wikipedia.org/wiki/בארות_יצחק
בארותיים,32.32111,34.98324,https://he.wikipedia.org/wiki/בארותיים
באר גנים,31.701613441069377,34.61029310149757,https://he.wikipedia.org/wiki/באר_גנים
בית ג'ן,32.96464,35.38152,https://he.wikipedia.org/wiki/בית_ג'ן
בן-עמי,33.00697,35.12562,https://he.wikipedia.org/wiki/בן-עמי
בן שמן,31.95281,34.922,https://he.wikipedia.org/wiki/בן_שמן
כפר הנוער בן שמן,31.958799670801074,34.928474667201364,https://he.wikipedia.org/wiki/כפר_הנוער_בן_שמן
בן זכאי,31.85612,34.72747,https://he.wikipedia.org/wiki/בן_זכאי
בניה,31.84341,34.75398,https://he.wikipedia.org/wiki/בניה_(מושב)
בני עטרות,32.02364,34.91288,https://he.wikipedia.org/wiki/בני_עטרות
"בני עי""ש",31.789861613135674,34.760133117781976,"https://he.wikipedia.org/wiki/בני_עי""ש"
בני ברק,32.08074,34.8338,https://he.wikipedia.org/wiki/בני_ברק
בני דרום,31.82034,34.69235,https://he.wikipedia.org/wiki/בני_דרום
בני דרור,32.2615,34.90196,https://he.wikipedia.org/wiki/בני_דרור
בני נצרים,31.141145208058827,34.31513070130337,https://he.wikipedia.org/wiki/בני_נצרים
בני ראם,31.77029,34.79105,https://he.wikipedia.org/wiki/בני_ראם
בני יהודה,32.79845,35.68903,https://he.wikipedia.org/wiki/בני_יהודה
בני ציון,32.21642711954262,34.865825984866646,https://he.wikipedia.org/wiki/בני_ציון
בקעות,32.2428,35.45288,https://he.wikipedia.org/wiki/בקעות
בקוע,31.82902,34.92579,https://he.wikipedia.org/wiki/בקוע
ברכה,32.19275,35.26538,https://he.wikipedia.org/wiki/ברכה
ברכיה,31.66895,34.6258,https://he.wikipedia.org/wiki/ברכיה_(מושב)
ברור חיל,31.55764,34.64664,https://he.wikipedia.org/wiki/ברור_חיל
ברוש,31.37121,34.63395,https://he.wikipedia.org/wiki/ברוש_(מושב)
בית אלפא,32.51609,35.43068,https://he.wikipedia.org/wiki/בית_אלפא
בית עריף,31.99622,34.93459,https://he.wikipedia.org/wiki/בית_עריף
בית אריה-עופרים,32.03333,35.05,https://he.wikipedia.org/wiki/בית_אריה-עופרים
בית ברל,32.20075943192315,34.926591406422624,https://he.wikipedia.org/wiki/בית_ברל
בית דגן,32.00191,34.82977,https://he.wikipedia.org/wiki/בית_דגן
בית אל,31.941514754376332,35.22525963574826,https://he.wikipedia.org/wiki/בית_אל
בית אלעזרי,31.84429,34.80368,https://he.wikipedia.org/wiki/בית_אלעזרי
בית עזרא,31.73606,34.65594,https://he.wikipedia.org/wiki/בית_עזרא
בית גמליאל,31.85555,34.76249,https://he.wikipedia.org/wiki/בית_גמליאל
בית גוברין,31.61294,34.89571,https://he.wikipedia.org/wiki/בית_גוברין_(קיבוץ)
בית הערבה,31.80749,35.47648,https://he.wikipedia.org/wiki/בית_הערבה
בית העמק,32.97184989599024,35.14538385740368,https://he.wikipedia.org/wiki/בית_העמק
בית הגדי,31.42516,34.60601,https://he.wikipedia.org/wiki/בית_הגדי
הרצליה,32.35285,34.93012,https://he.wikipedia.org/wiki/הרצליה
בית-חנן,31.93432,34.77304,https://he.wikipedia.org/wiki/בית-חנן
בית חנניה,32.52913,34.92596,https://he.wikipedia.org/wiki/בית_חנניה
בית השיטה,32.55131,35.43874,https://he.wikipedia.org/wiki/בית_השיטה
בית חשמונאי,31.88969,34.91673,https://he.wikipedia.org/wiki/בית_חשמונאי_(יישוב)
בית חרות,32.37623,34.87357,https://he.wikipedia.org/wiki/בית_חרות
בית הלל,33.20855,35.60697,https://he.wikipedia.org/wiki/בית_הלל_(מושב)
בית חלקיה,31.79281,34.81048,https://he.wikipedia.org/wiki/בית_חלקיה
בית חגלה,31.823136157568,35.50593344382028,https://he.wikipedia.org/wiki/בית_חגלה
בית חורון,31.879751051792873,35.126009143210595,https://he.wikipedia.org/wiki/בית_חורון
בית לחם הגלילית,32.73568,35.19146,https://he.wikipedia.org/wiki/בית_לחם_הגלילית
בית מאיר,31.79393,35.03689,https://he.wikipedia.org/wiki/בית_מאיר
בית נחמיה,31.97913,34.9505,https://he.wikipedia.org/wiki/בית_נחמיה
בית נקופה,31.80452,35.12595,https://he.wikipedia.org/wiki/בית_נקופה
בית ניר,31.64747,34.87382,https://he.wikipedia.org/wiki/בית_ניר
בית אורן,32.73069,35.00677,https://he.wikipedia.org/wiki/בית_אורן
בית עובד,31.92206,34.7741,https://he.wikipedia.org/wiki/בית_עובד
בית קמה,31.44749,34.76235,https://he.wikipedia.org/wiki/בית_קמה
בית קשת,32.71869,35.39516,https://he.wikipedia.org/wiki/בית_קשת
גבעת וושינגטון,31.81677,34.72937,https://he.wikipedia.org/wiki/גבעת_וושינגטון
בית רימון,32.77995,35.32766,https://he.wikipedia.org/wiki/בית_רימון
בית שאן,32.49728,35.49632,https://he.wikipedia.org/wiki/בית_שאן
בית שערים,32.69692262677951,35.179399543358066,https://he.wikipedia.org/wiki/בית_שערים
בית שמש,31.73072,34.99293,https://he.wikipedia.org/wiki/בית_שמש
בית שקמה,31.63589,34.60636,https://he.wikipedia.org/wiki/בית_שקמה
בית עוזיאל,31.87039,34.90483,https://he.wikipedia.org/wiki/בית_עוזיאל
בית ינאי,32.38091,34.8635,https://he.wikipedia.org/wiki/בית_ינאי
בית יהושע,32.25942,34.86414,https://he.wikipedia.org/wiki/בית_יהושע
בית יצחק-שער חפר,32.33433772685173,34.890155602436145,https://he.wikipedia.org/wiki/בית_יצחק-שער_חפר
בית יוסף,32.55836,35.55227,https://he.wikipedia.org/wiki/בית_יוסף_(מושב)
בית זית,31.78233,35.16161,https://he.wikipedia.org/wiki/בית_זית
בית זייד,32.70236094342373,35.13115749676183,https://he.wikipedia.org/wiki/בית_זייד
בית זרע,32.6886,35.57281,https://he.wikipedia.org/wiki/בית_זרע
כפר צבי סיטרין,32.72045,34.96986,https://he.wikipedia.org/wiki/כפר_צבי_סיטרין
ביתר עילית,31.7,35.11667,https://he.wikipedia.org/wiki/ביתר_עילית
בצת,33.07144,35.13473,https://he.wikipedia.org/wiki/בצת
בנימינה-גבעת עדה,32.5232,34.94499,https://he.wikipedia.org/wiki/בנימינה-גבעת_עדה
ביר אל-מכסור,32.77732,35.22069,https://he.wikipedia.org/wiki/ביר_אל-מכסור
ביריה,32.97832,35.49973,https://he.wikipedia.org/wiki/ביריה
ביתן אהרן,32.36738,34.8743,https://he.wikipedia.org/wiki/ביתן_אהרן
בטחה,31.33431,34.63371,https://he.wikipedia.org/wiki/בטחה
ביצרון,31.79446,34.72806,https://he.wikipedia.org/wiki/ביצרון
בני דקלים,31.516296407030428,34.917384852093434,https://he.wikipedia.org/wiki/בני_דקלים
ברוכין,32.07216,35.09943,https://he.wikipedia.org/wiki/ברוכין
בועיינה-נוג'ידאת,32.80966,35.36987,https://he.wikipedia.org/wiki/בועיינה-נוג'ידאת
בוקעאתא,33.20111,35.77917,https://he.wikipedia.org/wiki/בוקעאתא
בורגתא,32.32635,34.96236,https://he.wikipedia.org/wiki/בורגתא
בוסתן הגליל,32.95119,35.08298,https://he.wikipedia.org/wiki/בוסתן_הגליל
דבורייה,32.69256,35.37123,https://he.wikipedia.org/wiki/דבורייה
דפנה,33.23013,35.63867,https://he.wikipedia.org/wiki/דפנה_(קיבוץ)
דחי,32.62094,35.34454,https://he.wikipedia.org/wiki/דחי_(כפר)
דלית אל-כרמל,32.69383,35.04686,https://he.wikipedia.org/wiki/דלית_אל-כרמל
דליה,32.58943472038071,35.07512272844359,https://he.wikipedia.org/wiki/דליה_(קיבוץ)
דלתון,33.016702864327,35.488471092871876,https://he.wikipedia.org/wiki/דלתון_(מושב)
דן,33.239399062320174,35.65336348127006,https://he.wikipedia.org/wiki/דן_(קיבוץ)
דברת,32.64753,35.34967,https://he.wikipedia.org/wiki/דברת
דגניה א,32.70798,35.57487,https://he.wikipedia.org/wiki/דגניה א
דגניה ב,32.69987,35.57596,https://he.wikipedia.org/wiki/דגניה ב
דיר אל-אסד,32.93598,35.26998,https://he.wikipedia.org/wiki/דיר_אל-אסד
דיר חנא,32.86196,35.36365,https://he.wikipedia.org/wiki/דיר_חנא
דיר ראפאת,31.77643,34.94705,https://he.wikipedia.org/wiki/דיר_ראפאת
דמיידה,32.81519,35.22724,https://he.wikipedia.org/wiki/דמיידה
דקל,31.196302806559768,34.34754349259627,https://he.wikipedia.org/wiki/דקל_(מושב)
דריג'את,31.30239809183615,35.077387117988735,https://he.wikipedia.org/wiki/דריג'את
דבורה,32.554124295498546,35.263246431685715,https://he.wikipedia.org/wiki/דבורה_(מושב)
דימונה,31.07079,35.03269,https://he.wikipedia.org/wiki/דימונה
דישון,33.08263077662494,35.517938093151926,https://he.wikipedia.org/wiki/דישון_(מושב)
דולב,31.92609,35.13393,https://he.wikipedia.org/wiki/דולב_(יישוב)
דור,32.60844,34.91414,https://he.wikipedia.org/wiki/דור_(מושב)
דורות,31.50646,34.6456,https://he.wikipedia.org/wiki/דורות
דובב,33.051039079753345,35.40623573043287,https://he.wikipedia.org/wiki/דובב
דביר,31.41222,34.8254,https://he.wikipedia.org/wiki/דביר_(קיבוץ)
אפרת,31.65305,35.15013,https://he.wikipedia.org/wiki/אפרת
עיילבון,32.83693,35.40029,https://he.wikipedia.org/wiki/עיילבון
עין אל-אסד,32.94137,35.39639,https://he.wikipedia.org/wiki/עין_אל-אסד
עין הוד,32.70096,34.98362,https://he.wikipedia.org/wiki/עין_הוד
עין מאהל,32.72304,35.35303,https://he.wikipedia.org/wiki/עין_מאהל
עין נקובא,31.79366,35.12064,https://he.wikipedia.org/wiki/עין_נקובא
עין קנייא,33.23624288397188,35.731733677593795,https://he.wikipedia.org/wiki/עין_קנייא
עין ראפה,31.7902,35.11528,https://he.wikipedia.org/wiki/עין_ראפה
אלעד,32.0502009931771,34.95134492317009,https://he.wikipedia.org/wiki/אלעד
תלמי אלעזר,32.44566,34.97717,https://he.wikipedia.org/wiki/תלמי_אלעזר
אל-רום,33.18083,35.77165,https://he.wikipedia.org/wiki/אל-רום
אילת,29.55805,34.94821,https://he.wikipedia.org/wiki/אילת
עלי,32.07233198839848,35.26543390209591,https://he.wikipedia.org/wiki/עלי_(יישוב)
אלי-עד,32.8057,35.7349,https://he.wikipedia.org/wiki/אלי-עד
אליאב,31.52961,34.93046,https://he.wikipedia.org/wiki/אליאב
אליפז,29.7949,35.0113,https://he.wikipedia.org/wiki/אליפז_(קיבוץ)
אליפלט,32.94722,35.54791,https://he.wikipedia.org/wiki/אליפלט
https://he.wikipedia.org/wiki/אלישמע,32.15208,34.92827,אלישמע
אילון,33.06365,35.22009,https://he.wikipedia.org/wiki/אילון
אלון מורה,32.231476713560795,35.33575938936239,https://he.wikipedia.org/wiki/אלון_מורה
אלקנה,32.110472272608845,35.033887443477624,https://he.wikipedia.org/wiki/אלקנה
אלקוש,33.03346,35.32443,https://he.wikipedia.org/wiki/אלקוש
אליכין,32.40793,34.92433,https://he.wikipedia.org/wiki/אליכין
אליקים,32.63196,35.06694,https://he.wikipedia.org/wiki/אליקים
אלישיב,32.38108,34.90883,https://he.wikipedia.org/wiki/אלישיב_(מושב)
אמונים,31.74391,34.6754,https://he.wikipedia.org/wiki/אמונים
עין אילה,32.62899,34.94483,https://he.wikipedia.org/wiki/עין_אילה
עין דור,32.65614,35.41703,https://he.wikipedia.org/wiki/עין_דור
עין גדי,31.45238,35.38443,https://he.wikipedia.org/wiki/עין_גדי_(קיבוץ)
עין גב,32.78269,35.63841,https://he.wikipedia.org/wiki/עין_גב
עין הבשור,31.28216,34.44149,https://he.wikipedia.org/wiki/עין_הבשור
עין העמק,32.63068662305211,35.0844534655513,https://he.wikipedia.org/wiki/עין_העמק
עין החורש,32.38629,34.93967,https://he.wikipedia.org/wiki/עין_החורש
עין המפרץ,32.90308,35.09619,https://he.wikipedia.org/wiki/עין_המפרץ
"עין הנצי""ב",32.47037,35.50242,"https://he.wikipedia.org/wiki/עין_הנצי""ב"
עין חרוד איחוד,32.56382,35.39037,https://he.wikipedia.org/wiki/עין_חרוד_איחוד
עין חרוד מאוחד,32.55784,35.39214,https://he.wikipedia.org/wiki/עין_חרוד_מאוחד
עין השלושה,31.35134314100061,34.401393531747615,https://he.wikipedia.org/wiki/עין_השלושה
עין השופט,3232.59482812018101,35.10098029676803,https://he.wikipedia.org/wiki/עין_השופט
עין חצבה,30.79872,35.246,https://he.wikipedia.org/wiki/עין_חצבה_(מושב)
עין הוד,32.70161958431534,34.98203505365431,https://he.wikipedia.org/wiki/עין_הוד
עין עירון,32.485395708471025,35.009357772929654,https://he.wikipedia.org/wiki/עין_עירון
ען כרם,31.767714827030957,35.16112802731233,https://he.wikipedia.org/wiki/ען_כרם
עין כרמל,32.67539095666621,34.9518659602996,https://he.wikipedia.org/wiki/עין_כרמל
עין שריד,32.27413,34.93408,https://he.wikipedia.org/wiki/עין_שריד
עין שמר,32.46323,35.00687,https://he.wikipedia.org/wiki/עין_שמר
עין תמר,30.943,35.374,https://he.wikipedia.org/wiki/עין_תמר
עין ורד,32.26667,34.93333,https://he.wikipedia.org/wiki/עין_ורד
עין יעקב,33.01061426387807,35.22773281272015,https://he.wikipedia.org/wiki/עין_יעקב
עין יהב,30.65611887495906,35.23308706610531,https://he.wikipedia.org/wiki/עין_יהב
עין זיוון,33.09653,35.79636,https://he.wikipedia.org/wiki/עין_זיוון
עין צורים,31.69464,34.7194,https://he.wikipedia.org/wiki/עין_צורים
עינת,32.08318,34.93866,https://he.wikipedia.org/wiki/עינת
ענב,32.28626357443882,35.124942582175024,https://he.wikipedia.org/wiki/ענב_(יישוב)
ארז,31.560221254793525,34.56388196300577,https://he.wikipedia.org/wiki/ארז_(קיבוץ)
אשבול,31.44677,34.6672,https://he.wikipedia.org/wiki/אשבול_(מושב)
אשל הנשיא,31.32567,34.69744,https://he.wikipedia.org/wiki/אשל_הנשיא
אשחר,32.8864,35.30059,https://he.wikipedia.org/wiki/אשחר_(יישוב)
אשכולות,31.391472981238497,34.904598156062434,https://he.wikipedia.org/wiki/אשכולות
אשתאול,31.78072,35.00994,https://he.wikipedia.org/wiki/אשתאול
איתן,31.57396356372985,34.74849881116888,https://he.wikipedia.org/wiki/איתן_(מושב)
אתגר,32.85920588153256,35.25602902233222,https://he.wikipedia.org/wiki/אתגר_(יישוב)
אבן מנחם,33.07421,35.29404,https://he.wikipedia.org/wiki/אבן_מנחם
אבן ספיר,31.76319,35.13422,https://he.wikipedia.org/wiki/אבן_ספיר
אבן שמואל,31.57641,34.76342,https://he.wikipedia.org/wiki/אבן_שמואל
אבן יהודה,32.26959,34.88759,https://he.wikipedia.org/wiki/אבן_יהודה
גלעד,32.55716,35.07704,https://he.wikipedia.org/wiki/גלעד_(קיבוץ)
עברון,32.99556,35.10092,https://he.wikipedia.org/wiki/עברון
אייל,32.21156,34.97946,https://he.wikipedia.org/wiki/אייל_(קיבוץ)
אחיעזר,31.98133,34.87213,https://he.wikipedia.org/wiki/אחיעזר
עזוז,30.79245,34.47267,https://he.wikipedia.org/wiki/עזוז
פסוטה,33.04895,35.30893,https://he.wikipedia.org/wiki/פסוטה
פוריידיס,32.59812,34.95153,https://he.wikipedia.org/wiki/פוריידיס
געש,32.22898,34.83133,https://he.wikipedia.org/wiki/געש
געתון,33.00628,35.21477,https://he.wikipedia.org/wiki/געתון_(קיבוץ)
גדיש,32.55873,35.24471,https://he.wikipedia.org/wiki/גדיש
גדות,33.01915,35.61943,https://he.wikipedia.org/wiki/גדות
גלאון,31.63369,34.84868,https://he.wikipedia.org/wiki/גלאון
גן הדרום,31.80413,34.69994,https://he.wikipedia.org/wiki/גן_הדרום
גן השומרון,32.46273156744149,34.99755604324904,https://he.wikipedia.org/wiki/גן_השומרון
גן חיים,32.19512,34.90341,https://he.wikipedia.org/wiki/גן_חיים
גן נר,32.53106,35.3377,https://he.wikipedia.org/wiki/גן_נר
קבוצת שילר,31.87864,34.79961,https://he.wikipedia.org/wiki/קבוצת_שילר
גן שמואל,32.4492,34.95234,https://he.wikipedia.org/wiki/גן_שמואל
גן שורק,31.944112228079227,34.75587653967036,https://he.wikipedia.org/wiki/גן_שורק
גן יבנה,31.784650808581546,34.71385295456118,https://he.wikipedia.org/wiki/גן_יבנה
גן יאשיה,32.34928,34.99398,https://he.wikipedia.org/wiki/גן_יאשיה
גני עם,32.1529,34.90038,https://he.wikipedia.org/wiki/גני_עם
גני הדר,31.87858,34.85363,https://he.wikipedia.org/wiki/גני_הדר
גני מודיעין,31.930046788912676,35.016336161385404,https://he.wikipedia.org/wiki/גני_מודיעין
גני טל,31.789361688060843,34.78952637044813,https://he.wikipedia.org/wiki/גני_טל
גני תקווה,32.05971,34.8732,https://he.wikipedia.org/wiki/גני_תקווה
גני יוחנן,31.85446,34.83643,https://he.wikipedia.org/wiki/גני_יוחנן
גנות,32.01572104250688,34.830796175999424,https://he.wikipedia.org/wiki/גנות
גנות הדר,32.32244,34.90178,https://he.wikipedia.org/wiki/גנות_הדר
גת רימון,32.07103,34.88216,https://he.wikipedia.org/wiki/גת_רימון
גת,31.627963353222075,34.792604138363025,https://he.wikipedia.org/wiki/גת_(קיבוץ)
גזית,32.63893,35.4469,https://he.wikipedia.org/wiki/גזית
גיאה,31.62773675692138 34.60088507179709,https://he.wikipedia.org/wiki/גיאה
גאליה,31.88419,34.76568,https://he.wikipedia.org/wiki/גאליה_(מושב)
גאולי תימן,32.39269360803677,34.90124596524222,https://he.wikipedia.org/wiki/גאולי_תימן
גאולים,32.29962,34.94514,https://he.wikipedia.org/wiki/גאולים_(מושב)
גדרה,31.81456,34.77998,https://he.wikipedia.org/wiki/גדרה
גפן,31.74058,34.87902,https://he.wikipedia.org/wiki/גפן_(מושב)
גליל ים,32.15733,34.83141,https://he.wikipedia.org/wiki/גליל_ים
גרופית,29.94122,35.06441,https://he.wikipedia.org/wiki/גרופית
גשר,32.62238874099015,35.550078651010665,https://he.wikipedia.org/wiki/גשר_(קיבוץ)
גשר הזיו,33.04039,35.11065,https://he.wikipedia.org/wiki/גשר_הזיו
גשור,32.81873,35.71808,https://he.wikipedia.org/wiki/גשור
גבע,32.565828545596446,35.37266188882336,https://he.wikipedia.org/wiki/גבע
גבע כרמל,32.66002,34.94874,https://he.wikipedia.org/wiki/גבע_כרמל
גבע בנימין,31.85031,35.27405,https://he.wikipedia.org/wiki/גבע_בנימין
גבעות בר,31.355612397158797,34.75641605556727,https://he.wikipedia.org/wiki/גבעות_בר
גברעם,31.57762,34.60689,https://he.wikipedia.org/wiki/גברעם
גבת,32.67547,35.21247,https://he.wikipedia.org/wiki/גבת
גבים,31.50756,34.59869,https://he.wikipedia.org/wiki/גבים
גבולות,31.21072,34.46553,https://he.wikipedia.org/wiki/גבולות
גזר,31.87658,34.92046,https://he.wikipedia.org/wiki/גזר_(קיבוץ)
ע'ג'ר,33.27115,35.62288,https://he.wikipedia.org/wiki/ע'ג'ר
גבתון,31.888743888639947,34.79885471334061,https://he.wikipedia.org/wiki/גבתון
גדעונה,32.54915,35.35853,https://he.wikipedia.org/wiki/גדעונה
גילת,31.3276,34.65202,https://he.wikipedia.org/wiki/גילת
גלגל,31.999519361331572,35.44415257828179,https://he.wikipedia.org/wiki/גלגל_(קיבוץ)
גלאון,31.633489763890278,34.84798641530289,https://he.wikipedia.org/wiki/גלאון
גמזו,31.927502739724396,34.94062513749969,https://he.wikipedia.org/wiki/גמזו_(מושב)
גנתון,31.963914777872155,34.911998071203755,https://he.wikipedia.org/wiki/גנתון
גניגר,32.66364,35.25764,https://he.wikipedia.org/wiki/גניגר
גינוסר,32.84713,35.52335,https://he.wikipedia.org/wiki/גינוסר
גיתה,32.96701,35.24997,https://he.wikipedia.org/wiki/גיתה_(יישוב)
גיתית,32.10154,35.39604,https://he.wikipedia.org/wiki/גיתית
גבעת אבני,32.77682,35.43747,https://he.wikipedia.org/wiki/גבעת_אבני
גבעת ברנר,31.86684,34.80097,https://he.wikipedia.org/wiki/גבעת_ברנר
גבעת אלה,32.72377,35.24469,https://he.wikipedia.org/wiki/גבעת_אלה
גבעת השלושה,32.0985507504585,34.92051351862551,https://he.wikipedia.org/wiki/גבעת_השלושה
גבעת חיים איחוד),32.39775,34.93213,https://he.wikipedia.org/wiki/גבעת_חיים_איחוד)
גבעת חיים מאוחד),32.39347639927528,34.929648926663894,https://he.wikipedia.org/wiki/גבעת_חיים_מאוחד)
"גבעת ח""ן",32.16831,34.87537,"https://he.wikipedia.org/wiki/גבעת_ח""ן"
"גבעת כ""ח",32.03117,34.93657,"https://he.wikipedia.org/wiki/גבעת_כ""ח"
"גבעת ניל""י",32.54864,35.04026,"https://he.wikipedia.org/wiki/גבעת_ניל""י"
גבעת עוז,32.55538,35.19878,https://he.wikipedia.org/wiki/גבעת_עוז
גבעת שפירא,32.35744,34.87601,https://he.wikipedia.org/wiki/גבעת_שפירא_(מושב)
גבעת שמש,31.7752,34.95155,https://he.wikipedia.org/wiki/גבעת_שמש
גבעת שמואל,32.07817,34.84858,https://he.wikipedia.org/wiki/גבעת_שמואל
גבעת יערים,31.78653,35.09182,https://he.wikipedia.org/wiki/גבעת_יערים
גבעת ישעיהו,31.67119,34.94472,https://he.wikipedia.org/wiki/גבעת_ישעיהו
גבעת יואב,32.7998,35.681,https://he.wikipedia.org/wiki/גבעת_יואב
גבעת זאב,31.86667,35.16667,https://he.wikipedia.org/wiki/גבעת_זאב
גבעתיים,32.07225,34.81253,https://he.wikipedia.org/wiki/גבעתיים
גבעתי,31.733,34.67995,https://he.wikipedia.org/wiki/גבעתי_(מושב)
גבעולים,31.39658,34.59136,https://he.wikipedia.org/wiki/גבעולים
גבעון החדשה,31.84927,35.16106,https://he.wikipedia.org/wiki/גבעון_החדשה
גבעות עדן,31.66195091973386,35.01421925959489,https://he.wikipedia.org/wiki/גבעות_עדן
גבעות הרואה,32.054379215573725,35.26254626357662,https://he.wikipedia.org/wiki/גבעות_הרואה
גיזו,31.80474,34.93852,https://he.wikipedia.org/wiki/גיזו
גונן,33.124556354203314,35.645121727279985,https://he.wikipedia.org/wiki/גונן
גורן,33.0566,35.23772,https://he.wikipedia.org/wiki/גורן_(מושב)
גורנות הגליל,33.05939,35.24982,https://he.wikipedia.org/wiki/גורנות_הגליל
הבונים,32.63505,34.92231,https://he.wikipedia.org/wiki/הבונים
חד נס,32.92686,35.64228,https://he.wikipedia.org/wiki/חד_נס
הדר עם,32.35037,34.89992,https://he.wikipedia.org/wiki/הדר_עם
חדרה,32.44192,34.9039,https://he.wikipedia.org/wiki/חדרה
חדיד,31.96846,34.93373,https://he.wikipedia.org/wiki/חדיד
חפץ חיים,31.78832,34.80011,https://he.wikipedia.org/wiki/חפץ_חיים_(קיבוץ)
חגור,32.13915401016852,34.9463438104563,https://he.wikipedia.org/wiki/חגור
הגושרים,33.22061,35.62331,https://he.wikipedia.org/wiki/הגושרים
החותרים,32.75179,34.95694,https://he.wikipedia.org/wiki/החותרים
חיפה,32.81841,34.9885,https://he.wikipedia.org/wiki/חיפה
הר חלוץ,32.94731,35.30266,https://he.wikipedia.org/wiki/הר_חלוץ
המעפיל,32.37802,34.98337,https://he.wikipedia.org/wiki/המעפיל
חמדיה,32.52015338611988,35.51809632824604,https://he.wikipedia.org/wiki/חמדיה
חמאם,32.82955,35.49195,https://he.wikipedia.org/wiki/חמאם
חמרה,32.19922760777019,35.43309343405131,https://he.wikipedia.org/wiki/חמרה_(מושב)
חניתה,33.0916,35.1765,https://he.wikipedia.org/wiki/חניתה
חנתון,32.78366,35.2446,https://he.wikipedia.org/wiki/חנתון
חניאל,32.33306,34.95051,https://he.wikipedia.org/wiki/חניאל
העוגן,32.3621,34.92392,https://he.wikipedia.org/wiki/העוגן
האון,32.72492,35.62162,https://he.wikipedia.org/wiki/האון
הר אדר,31.82754,35.13093,https://he.wikipedia.org/wiki/הר_אדר
הר עמשא,31.3228,35.0952,https://he.wikipedia.org/wiki/הר_עמשא_(יישוב)
הר גילה,31.72119,35.1724,https://he.wikipedia.org/wiki/הר_גילה
הראל,31.809357810827873,34.94864410536674,https://he.wikipedia.org/wiki/הראל_(קיבוץ)
הררית,32.84572,35.36823,https://he.wikipedia.org/wiki/הררית
חרשים,32.95689,35.32791,https://he.wikipedia.org/wiki/חרשים
הרדוף,32.76342,35.17469,https://he.wikipedia.org/wiki/הרדוף_(קיבוץ)
חריש,32.46096,35.0435,https://he.wikipedia.org/wiki/חריש
חרוצים,32.22074,34.85702,https://he.wikipedia.org/wiki/חרוצים
חשמונאים,31.931667937262674,35.02155510566488,https://he.wikipedia.org/wiki/חשמונאים_(יישוב)
הסוללים,32.75200090899013,35.23574160897295,https://he.wikipedia.org/wiki/הסוללים
חיספין,32.84571,35.79295,https://he.wikipedia.org/wiki/חיספין
חבצלת השרון,32.36263,34.85934,https://he.wikipedia.org/wiki/חבצלת_השרון_(מושב)
קסר א-סיר,31.091003963105823,34.97915296024942,https://he.wikipedia.org/wiki/קסר_א-סיר
היוגב,32.61093,35.20358,https://he.wikipedia.org/wiki/היוגב
חצב,31.78052,34.76915,https://he.wikipedia.org/wiki/חצב_(מושב)
חצרים,31.24057,34.7139,https://he.wikipedia.org/wiki/חצרים
חצבה,30.79872,35.246,https://he.wikipedia.org/wiki/חצבה
חזון,32.90539206913751,35.39116896989825,https://he.wikipedia.org/wiki/חזון_(מושב)
חצור הגלילית,32.98049,35.54243,https://he.wikipedia.org/wiki/חצור_הגלילית
חצור אשדוד,31.77227,34.72051,https://he.wikipedia.org/wiki/חצור_אשדוד
הזורעים,32.74707,35.50274,https://he.wikipedia.org/wiki/הזורעים
הזורע,32.64572,35.11883,https://he.wikipedia.org/wiki/הזורע
חפציבה,32.51938860273644,35.4249609314114,https://he.wikipedia.org/wiki/חפציבה
חלץ,31.577452274105877,34.65647133629154,https://he.wikipedia.org/wiki/חלץ
חמד,32.01881272641648,34.839519809765754,"https://he.wikipedia.org/wiki/חמ""ד_(מושב)"
חרב לאת,32.40136,34.91616,https://he.wikipedia.org/wiki/חרב_לאת
חרמש,32.42390194809424,35.117895193036276,https://he.wikipedia.org/wiki/חרמש_(יישוב)
חרות,32.24018,34.91583,https://he.wikipedia.org/wiki/חרות_(מושב)
הרצליה,32.17338837645719,34.83126411327173,https://he.wikipedia.org/wiki/הרצליה
מרכז חבר,32.54807369650736,35.26331678088049,https://he.wikipedia.org/wiki/מרכז_חבר
חיבת ציון,32.39731,34.91249,https://he.wikipedia.org/wiki/חיבת_ציון_(מושב)
מצפה הילה,33.03618371723007,35.24183058486777,https://he.wikipedia.org/wiki/מצפה_הילה
חיננית,32.47999,35.17357,https://he.wikipedia.org/wiki/חיננית
הוד השרון,32.15934,34.8932,https://he.wikipedia.org/wiki/הוד_השרון
הודיות,32.7882132215749,35.436201567240865,https://he.wikipedia.org/wiki/הודיות
הודיה,31.67331,34.63947,https://he.wikipedia.org/wiki/הודיה
חופית,32.38565,34.87425,https://he.wikipedia.org/wiki/חופית_(יישוב)
חגלה,32.38767,34.92759,https://he.wikipedia.org/wiki/חגלה_(מושב)
חולית,31.22963,34.32592,https://he.wikipedia.org/wiki/חולית_(קיבוץ)
חולון,32.01034,34.77918,https://he.wikipedia.org/wiki/חולון
חורשים,32.13817,34.97111,https://he.wikipedia.org/wiki/חורשים
חוסן,32.99824,35.29807,https://he.wikipedia.org/wiki/חוסן
הושעיה,32.7586012611259,35.29236278877648,https://he.wikipedia.org/wiki/הושעיה
ד'הרה,32.835018358059706,35.28916389262548,https://he.wikipedia.org/wiki/ד'הרה
חולתה,33.05152,35.60981,https://he.wikipedia.org/wiki/חולתה
חולדה,31.83176,34.88231,https://he.wikipedia.org/wiki/חולדה_(קיבוץ)
חוקוק,32.87918,35.49555,https://he.wikipedia.org/wiki/חוקוק
חורה,31.30084,34.93606,https://he.wikipedia.org/wiki/חורה
חורפיש,33.01711,35.34835,https://he.wikipedia.org/wiki/חורפיש
חוסנייה,32.90333517974154,35.31546441301865,https://he.wikipedia.org/wiki/חוסנייה
אעבלין,32.82233,35.19271,https://he.wikipedia.org/wiki/אעבלין
איבים,31.53279,34.61048,https://he.wikipedia.org/wiki/איבים
אבטין,32.7615,35.11402,https://he.wikipedia.org/wiki/אבטין
עידן,30.8069,35.30043,https://he.wikipedia.org/wiki/עידן_(מושב)
אכסאל,32.68164,35.32365,https://he.wikipedia.org/wiki/אכסאל
אילניה,32.75467,35.40837,https://he.wikipedia.org/wiki/אילניה
עילוט,32.71893118729281,35.260568194227695,https://he.wikipedia.org/wiki/עילוט
עמנואל,32.16075,35.13611,https://he.wikipedia.org/wiki/עמנואל
עיר אובות,30.80905,35.24195,https://he.wikipedia.org/wiki/עיר_אובות
אירוס,31.928553677691244,34.77691960030525,https://he.wikipedia.org/wiki/אירוס_(יישוב)
עספיא,32.718833245288515,35.06264865977563,https://he.wikipedia.org/wiki/עספיא
איתמר,32.171712403093586,35.310152016926565,https://he.wikipedia.org/wiki/איתמר_(יישוב)
ג'ת,32.40079221318978,35.030156492634646,https://he.wikipedia.org/wiki/ג'ת
ג'לג'וליה,32.1547,34.95372,https://he.wikipedia.org/wiki/ג'לג'וליה
ירושלים,31.76904,35.21633,https://he.wikipedia.org/wiki/ירושלים
ג'ש,33.02216,35.44694,https://he.wikipedia.org/wiki/ג'ש_(גוש_חלב)
ג'סר א-זרקא,32.53684,34.9127,https://he.wikipedia.org/wiki/ג'סר_א-זרקא
ג'דיידה-מכר,32.9314829821317,35.147827989683286,https://he.wikipedia.org/wiki/ג'דיידה-מכר
ג'וליס,32.94267,35.18278,https://he.wikipedia.org/wiki/ג'וליס
כעביה-טבאש-חג'אג'רה,32.74985,35.18361,https://he.wikipedia.org/wiki/כעביה-טבאש-חג'אג'רה
כברי,33.0209,35.14835,https://he.wikipedia.org/wiki/כברי
כאבול,32.86856,35.21171,https://he.wikipedia.org/wiki/כאבול
כדיתה,33.00511,35.46773,https://he.wikipedia.org/wiki/כדיתה
כדורי,32.70381,35.40791,https://he.wikipedia.org/wiki/כדורי_(מרכז_אזורי)
כפר ברא,32.128122905458795,34.97210292106956,https://he.wikipedia.org/wiki/כפר_ברא
כפר כמא,32.72129,35.44122,https://he.wikipedia.org/wiki/כפר_כמא
כפר כנא,32.74963020977228,35.33889133789982,https://he.wikipedia.org/wiki/כפר_כנא
כפר מנדא,32.81034,35.26009,https://he.wikipedia.org/wiki/כפר_מנדא
כפר מצר,32.64432371321758,35.42217231316933,https://he.wikipedia.org/wiki/כפר_מצר
כפר קרע,32.503913003669076,35.04850504107502,https://he.wikipedia.org/wiki/כפר_קרע
כפר קאסם,32.11406,34.97624,https://he.wikipedia.org/wiki/כפר_קאסם
כפר יאסיף,32.95435093793378,35.160021734305666,https://he.wikipedia.org/wiki/כפר_יאסיף
כחל,32.89231,35.51049,https://he.wikipedia.org/wiki/כחל
כלנית,32.8754,35.45326,https://he.wikipedia.org/wiki/כלנית_(יישוב)
כמון,32.90492,35.34783,https://he.wikipedia.org/wiki/כמון_(יישוב)
כנף,32.87020334981359,35.69822825658191,https://he.wikipedia.org/wiki/כנף_(מושב)
כנות,31.80263,34.75202,https://he.wikipedia.org/wiki/כנות_(מוסד_חינוכי)
כאוכב אבו אל-היג'א,32.83340516648208,35.24829068636451,https://he.wikipedia.org/wiki/כאוכב_אבו_אל-היג'א
כרכום,32.930660227176695,35.60657167778164,https://he.wikipedia.org/wiki/כרכום_(יישוב)
כרמי קטיף,31.53786066381945,34.91353788912539,https://he.wikipedia.org/wiki/כרמי_קטיף
כרמי יוסף,31.84833,34.92024,https://he.wikipedia.org/wiki/כרמי_יוסף
כרמי צור,31.6098,35.10167,https://he.wikipedia.org/wiki/כרמי_צור
כרמל,31.432135841184323,35.18306575653854,https://he.wikipedia.org/wiki/כרמל_(מושב)
כרמיאל,32.91708,35.30501,https://he.wikipedia.org/wiki/כרמיאל
כרמיה,31.60439,34.5426,https://he.wikipedia.org/wiki/כרמיה_(קיבוץ)
כפר אדומים,31.82614,35.33558,https://he.wikipedia.org/wiki/כפר_אדומים
כפר אחים,31.7448,34.75681,https://he.wikipedia.org/wiki/כפר_אחים
כפר אביב,31.83029263767586,34.72407483664574,https://he.wikipedia.org/wiki/כפר_אביב
כפר עבודה,32.71982,35.54667,https://he.wikipedia.org/wiki/כפר_עבודה
כפר עזה,31.48406,34.53306,https://he.wikipedia.org/wiki/כפר_עזה
כפר ברוך,32.63694,35.20806,https://he.wikipedia.org/wiki/כפר_ברוך
כפר ביאליק,32.81978299409669,35.08963026169103,https://he.wikipedia.org/wiki/כפר_ביאליק
"כפר ביל""""ו",31.87702,34.82108,"https://he.wikipedia.org/wiki/כפר_ביל""ו"
כפר בן נון,31.86205,34.94762,https://he.wikipedia.org/wiki/כפר_בן_נון
כפר בלום,33.17172,35.60982,https://he.wikipedia.org/wiki/כפר_בלום
כפר דניאל,31.93425,34.93165,https://he.wikipedia.org/wiki/כפר_דניאל
כפר עציון,31.65,35.11667,https://he.wikipedia.org/wiki/כפר_עציון
כפר גלים,32.7662,34.95887,https://he.wikipedia.org/wiki/כפר_גלים
כפר גדעון,32.64514607720814,35.29028214347783,https://he.wikipedia.org/wiki/כפר_גדעון
כפר גלעדי,33.24228,35.57515,https://he.wikipedia.org/wiki/כפר_גלעדי
כפר גליקסון,32.50549,35.00505,https://he.wikipedia.org/wiki/כפר_גליקסון
"כפר חב""ד",31.98793,34.8516,"https://he.wikipedia.org/wiki/כפר_חב""ד"
כפר החורש,32.706,35.26458,https://he.wikipedia.org/wiki/כפר_החורש
כפר המכבי,32.790441203629065,35.11463594101311,https://he.wikipedia.org/wiki/כפר_המכבי
כפר הנגיד,31.88716,34.74833,https://he.wikipedia.org/wiki/כפר_הנגיד
כפר חנניה,32.9163,35.4218,https://he.wikipedia.org/wiki/כפר_חנניה
כפר הנשיא,32.97447,35.60395,https://he.wikipedia.org/wiki/כפר_הנשיא
כפר האורנים,31.92033554018607,35.03816781408511,https://he.wikipedia.org/wiki/כפר_האורנים
"כפר הרי""ף",31.74697,34.79089,https://he.wikipedia.org/wiki/כפר_הרי"ף
"כפר הרא""ה",32.39245,34.91163,https://he.wikipedia.org/wiki/כפר_הרא"ה
כפר חרוב,32.76176,35.66277,https://he.wikipedia.org/wiki/כפר_חרוב
כפר חסידים,32.74867,35.09137,https://he.wikipedia.org/wiki/כפר_חסידים
כפר חיים,32.35820389855381,34.89725788111531,https://he.wikipedia.org/wiki/כפר_חיים
כפר הס,32.24704030849134,34.93517554483225,https://he.wikipedia.org/wiki/כפר_הס
כפר חיטים,32.79961,35.50276,https://he.wikipedia.org/wiki/כפר_חיטים
כפר חושן,33.01209,35.44049,https://he.wikipedia.org/wiki/כפר_חושן
כפר קיש,32.66686,35.44893,https://he.wikipedia.org/wiki/כפר_קיש
"כפר מל""ל",32.16706689675967,34.89423433452579,"https://he.wikipedia.org/wiki/כפר_מל""ל"
כפר מסריק,32.89019,35.09889,https://he.wikipedia.org/wiki/כפר_מסריק
כפר מימון,31.43286,34.53672,https://he.wikipedia.org/wiki/כפר_מימון
כפר מנחם,31.73139,34.83547,https://he.wikipedia.org/wiki/כפר_מנחם
כפר מונש,32.3471,34.91628,https://he.wikipedia.org/wiki/כפר_מונש
כפר מרדכי,31.82997,34.75713,https://he.wikipedia.org/wiki/כפר_מרדכי
כפר נטר,32.273,34.87349,https://he.wikipedia.org/wiki/כפר_נטר
כפר פינס,32.48372,35.00294,https://he.wikipedia.org/wiki/כפר_פינס
ראש הנקרה,33.08607,35.11348,https://he.wikipedia.org/wiki/ראש_הנקרה_(קיבוץ)
זרעית,33.09955,35.2889,https://he.wikipedia.org/wiki/זרעית
כפר רופין,32.45832,35.56131,https://he.wikipedia.org/wiki/כפר_רופין
כפר רות,31.911126060563028,35.03545014557797,https://he.wikipedia.org/wiki/כפר_רות
כפר סבא,32.175,34.90694,https://he.wikipedia.org/wiki/כפר_סבא
כפר שמאי,32.95741,35.45742,https://he.wikipedia.org/wiki/כפר_שמאי
כפר שמריהו,32.18529,34.82082,https://he.wikipedia.org/wiki/כפר_שמריהו
כפר שמואל,31.89032,34.93152,https://he.wikipedia.org/wiki/כפר_שמואל
כפר סילבר,31.67319,34.61183,https://he.wikipedia.org/wiki/כפר_סילבר
כפר סירקין,32.07804,34.92261,https://he.wikipedia.org/wiki/כפר_סירקין
כפר סאלד,33.19591,35.65836,https://he.wikipedia.org/wiki/כפר_סאלד
כפר תפוח,32.1186,35.24993,https://he.wikipedia.org/wiki/כפר_תפוח
כפר תבור,32.68655,35.42118,https://he.wikipedia.org/wiki/כפר_תבור
כפר טרומן,31.98014,34.92403,https://he.wikipedia.org/wiki/כפר_טרומן
כפר אוריה,31.792021181225472,34.94705152678074,https://he.wikipedia.org/wiki/כפר_אוריה
כפר ויתקין,32.38036,34.87537,https://he.wikipedia.org/wiki/כפר_ויתקין
כפר ורבורג,31.71945,34.72405,https://he.wikipedia.org/wiki/כפר_ורבורג
כפר ורדים,32.99385,35.27793,https://he.wikipedia.org/wiki/כפר_ורדים
כפר יעבץ,32.273182034382216,34.965724736195185,https://he.wikipedia.org/wiki/כפר_יעבץ
כפר יחזקאל,32.5681,35.36224,https://he.wikipedia.org/wiki/כפר_יחזקאל
כפר יהושע,32.68063,35.15264,https://he.wikipedia.org/wiki/כפר_יהושע
כפר יונה,32.31669,34.93507,https://he.wikipedia.org/wiki/כפר_יונה
כפר זיתים,32.81137,35.46359,https://he.wikipedia.org/wiki/כפר_זיתים
כפר זוהרים,31.621590968483755,34.92535867413705,https://he.wikipedia.org/wiki/כפר_זוהרים
כליל,32.98151,35.20335,https://he.wikipedia.org/wiki/כליל
כמהין,30.91086,34.43185,https://he.wikipedia.org/wiki/כמהין_(מושב)
כרמים,31.33239,34.91737,https://he.wikipedia.org/wiki/כרמים
כרם בן שמן,31.95865,34.93414,https://he.wikipedia.org/wiki/כרם_בן_שמן
כרם בן זמרה,33.03833,35.46872,https://he.wikipedia.org/wiki/כרם_בן_זמרה
"כרם מהר""ל",32.65137,34.98385,"https://he.wikipedia.org/wiki/כרם_מהר""ל"
כרם שלום,31.22777,34.28459,https://he.wikipedia.org/wiki/כרם_שלום
כסלון,31.77498,35.04838,https://he.wikipedia.org/wiki/כסלון
ח'וואלד,32.75886898199585,35.15825259674816,https://he.wikipedia.org/wiki/ח'וואלד
כנרת,32.72264,35.5662,https://he.wikipedia.org/wiki/כנרת_(מושבה)
קבוצת כנרת,32.7138,35.56301,https://he.wikipedia.org/wiki/קבוצת_כנרת
כישור,32.94699,35.24921,https://he.wikipedia.org/wiki/כישור_(קיבוץ)
כסרא-סמיע,32.97262,35.29877,https://he.wikipedia.org/wiki/כסרא-סמיע
כיסופים,31.37493,34.3984,https://he.wikipedia.org/wiki/כיסופים
כוחלה,31.287731784475415,35.04895526853883,https://he.wikipedia.org/wiki/כוחלה_(כפר)
כוכב השחר,31.96028,35.34923,https://he.wikipedia.org/wiki/כוכב_השחר_(יישוב)
כוכב מיכאל,31.62804,34.66904,https://he.wikipedia.org/wiki/כוכב_מיכאל
כוכב יעקב,31.88102,35.24384,https://he.wikipedia.org/wiki/כוכב_יעקב
כוכב יאיר צור יגאל,32.22623,35.00222,https://he.wikipedia.org/wiki/כוכב_יאיר_צור_יגאל
כורזים,32.91013,35.56002,https://he.wikipedia.org/wiki/כורזים_(יישוב)
כסייפה,31.24535,35.0931,https://he.wikipedia.org/wiki/כסייפה
להב,31.37984959279865,34.870358498001416,https://he.wikipedia.org/wiki/להב_(קיבוץ)
להבות הבשן,33.14166,35.64678,https://he.wikipedia.org/wiki/להבות_הבשן
להבות חביבה,32.39517,35.00977,https://he.wikipedia.org/wiki/להבות_חביבה
לכיש,31.56302722235391,34.84094332594241,https://he.wikipedia.org/wiki/לכיש
לפיד,31.918538169043448,35.03174413609656,https://he.wikipedia.org/wiki/לפיד_(יישוב)
לפידות,32.95904,35.26146,https://he.wikipedia.org/wiki/לפידות
לקייה,31.3185,34.8589,https://he.wikipedia.org/wiki/לקייה
לביא,32.78654,35.43942,https://he.wikipedia.org/wiki/לביא_(קיבוץ)
לבון,32.94165,35.28446,https://he.wikipedia.org/wiki/לבון
להבים,31.37284,34.81619,https://he.wikipedia.org/wiki/להבים
שריגים,31.67744,34.93464,https://he.wikipedia.org/wiki/שריגים_(לי-און)
לימן,33.07051,35.11638,https://he.wikipedia.org/wiki/לימן
ליבנים,32.863172873057415,35.49389093678111,https://he.wikipedia.org/wiki/ליבנים
לוד,31.9467,34.8903,https://he.wikipedia.org/wiki/לוד
לוחמי הגטאות,32.96308,35.09502,https://he.wikipedia.org/wiki/לוחמי_הגטאות
לוטן,29.98693,35.08806,https://he.wikipedia.org/wiki/לוטן
לוטם,32.88179,35.35882,https://he.wikipedia.org/wiki/לוטם_(יישוב)
לוזית,31.68715,34.88649,https://he.wikipedia.org/wiki/לוזית
מעגן,32.70740495254963,35.602036960791196,https://he.wikipedia.org/wiki/מעגן_(קיבוץ)
מעגן מיכאל,32.55549,34.91638,https://he.wikipedia.org/wiki/מעגן_מיכאל
מעלה אדומים,31.7774,35.29875,https://he.wikipedia.org/wiki/מעלה_אדומים
מעלה עמוס,31.59608,35.22981,https://he.wikipedia.org/wiki/מעלה_עמוס
מעלה אפרים,32.07142,35.39868,https://he.wikipedia.org/wiki/מעלה_אפרים
מעלה גמלא,32.88945070305976,35.68526272364211,https://he.wikipedia.org/wiki/מעלה_גמלא
מעלה גלבוע,32.47746547985338,35.41761071182622,https://he.wikipedia.org/wiki/מעלה_גלבוע
מעלה החמישה,31.81812,35.11109,https://he.wikipedia.org/wiki/מעלה_החמישה
מעלה עירון,32.55186178175321,35.168829172636286,https://he.wikipedia.org/wiki/מעלה_עירון
מעלה לבונה,32.05384,35.24002,https://he.wikipedia.org/wiki/מעלה_לבונה
מעלה מכמש,31.87972,35.3054,https://he.wikipedia.org/wiki/מעלה_מכמש
מעלות-תרשיחא,33.01667,35.26667,https://he.wikipedia.org/wiki/מעלות-תרשיחא
מענית,32.45617,35.02889,https://he.wikipedia.org/wiki/מענית
מעברות,32.36367,34.90545,https://he.wikipedia.org/wiki/מעברות
מעגלים,31.39688,34.5995,https://he.wikipedia.org/wiki/מעגלים
מעון,31.4137771971763,35.16509306083739,https://he.wikipedia.org/wiki/מעון_(מושב)
מאור,32.42306,35.00513,https://he.wikipedia.org/wiki/מאור
מעוז חיים,32.49393829986426,35.5512118411728,https://he.wikipedia.org/wiki/מעוז_חיים
מעיין ברוך,33.24032,35.609,https://he.wikipedia.org/wiki/מעיין_ברוך
מעיין צבי,32.5686,34.94063,https://he.wikipedia.org/wiki/מעיין_צבי
מבועים,31.44965,34.65477,https://he.wikipedia.org/wiki/מבועים
מגן,31.298909466432235 34.42632139654622,https://he.wikipedia.org/wiki/מגן_(קיבוץ)
מגן שאול,32.52174,35.30776,https://he.wikipedia.org/wiki/מגן_שאול
מגל,32.38506,35.0368,https://he.wikipedia.org/wiki/מגל_(קיבוץ)
מגשימים,32.04734,34.89901,https://he.wikipedia.org/wiki/מגשימים
מחניים,32.98105,35.57191,https://he.wikipedia.org/wiki/מחניים
צופר,30.56059666534682 35.17978747367654,https://he.wikipedia.org/wiki/צופר_(מושב)
מחסיה,31.74854,35.00704,https://he.wikipedia.org/wiki/מחסיה
מג'ד אל-כרום,32.91948799691003,35.255230474793805,https://he.wikipedia.org/wiki/מג'ד_אל-כרום
מג'דל שמס,33.27029,35.7716,https://he.wikipedia.org/wiki/מג'דל_שמס
מכחול,31.288449573024543,35.0762255094026,https://he.wikipedia.org/wiki/מכחול_(יישוב)
מלכיה,33.0983,35.51079,https://he.wikipedia.org/wiki/מלכיה
מנוף,32.85399,35.23684,https://he.wikipedia.org/wiki/מנוף_(יישוב)
מנות,33.03893,35.19544,https://he.wikipedia.org/wiki/מנות
מנשייה זבדה,32.705171211328896,35.194050793547966,https://he.wikipedia.org/wiki/מנשייה_זבדה
מרגליות,33.2084,35.54583,https://he.wikipedia.org/wiki/מרגליות
מסעדה,33.23203,35.75572,https://he.wikipedia.org/wiki/מסעדה_(יישוב)
משאבי שדה,31.00343,34.78646,https://he.wikipedia.org/wiki/משאבי_שדה
משען,33.27029,35.7716,https://he.wikipedia.org/wiki/משען
משכיות,32.31667,35.5,https://he.wikipedia.org/wiki/משכיות
מסלול,31.32485,34.59056,https://he.wikipedia.org/wiki/מסלול_(מושב)
מסד,32.84383,35.42213,https://he.wikipedia.org/wiki/מסד
מצדה,31.31561,35.35275,https://he.wikipedia.org/wiki/מצדה
משואה,32.113932741407844 35.48865423156918,https://he.wikipedia.org/wiki/משואה_(מושב)
משואות יצחק,31.70297,34.69129,https://he.wikipedia.org/wiki/משואות_יצחק
מטע,31.71811,35.06141,https://he.wikipedia.org/wiki/מטע_(מושב)
מתן,32.16003932707535,34.97193341840991,https://he.wikipedia.org/wiki/מתן
מתת,33.04565,35.35525,https://he.wikipedia.org/wiki/מתת
מתתיהו,31.92969,35.0345,https://he.wikipedia.org/wiki/מתתיהו_(יישוב)
מבקיעים,31.62207,34.57817,https://he.wikipedia.org/wiki/מבקיעים
מזכרת בתיה,31.85357,34.84646,https://he.wikipedia.org/wiki/מזכרת_בתיה
מצליח,31.90669,34.87134,https://he.wikipedia.org/wiki/מצליח
מזור,32.05115,34.92291,https://he.wikipedia.org/wiki/מזור
מזרעה,32.98338,35.09837,https://he.wikipedia.org/wiki/מזרעה
מצובה,33.06375,35.15761,https://he.wikipedia.org/wiki/מצובה
מי עמי,32.50503,35.14869,https://he.wikipedia.org/wiki/מי_עמי
מאיר שפיה,32.59108,34.97126,https://he.wikipedia.org/wiki/מאיר_שפיה
מעונה,33.01685,35.2595,https://he.wikipedia.org/wiki/מעונה
מפלסים,31.50125,34.5637,https://he.wikipedia.org/wiki/מפלסים
מגדים,32.72815,34.95631,https://he.wikipedia.org/wiki/מגדים
מגידו,32.57983858382957,35.17928775416929,https://he.wikipedia.org/wiki/מגידו
מחולה,32.36552,35.51548,https://he.wikipedia.org/wiki/מחולה
מייסר,32.44445,35.04134,https://he.wikipedia.org/wiki/מייסר
מכורה,32.16484,35.42285,https://he.wikipedia.org/wiki/מכורה
מלאה,32.56331,35.23747,https://he.wikipedia.org/wiki/מלאה
מלילות,31.39015,34.59661,https://he.wikipedia.org/wiki/מלילות
מנחמיה,32.66662,35.555,https://he.wikipedia.org/wiki/מנחמיה
מנרה,33.19786105363485,35.54535626221715,httpמs://he.wikipedia.org/wiki/מנרה
מנוחה,31.6569,34.77693,https://he.wikipedia.org/wiki/מנוחה
מירב,32.45182,35.42354,https://he.wikipedia.org/wiki/מירב
מרחב עם,30.8877,34.82788,https://he.wikipedia.org/wiki/מרחב_עם
מרחביה,32.60432,35.30782,https://he.wikipedia.org/wiki/מרחביה_(קיבוץ)
מרחביה,32.60432,35.30782,https://he.wikipedia.org/wiki/מרחביה_(מושב)
מרכז שפירא,31.695591343412893 34.70617617106737,https://he.wikipedia.org/wiki/מרכז_שפירא
מרום גולן,33.13203,35.77715,https://he.wikipedia.org/wiki/מרום_גולן
מירון,32.99751,35.41231,https://he.wikipedia.org/wiki/מירון
מישר,31.81613,34.75293,https://he.wikipedia.org/wiki/מישר
משהד,32.74456163837976,35.320094260865574,https://he.wikipedia.org/wiki/משהד_(מועצה_מקומית)
מסילת ציון,31.802,35.01095,https://he.wikipedia.org/wiki/מסילת_ציון
מסילות,32.49587,35.47444,https://he.wikipedia.org/wiki/מסילות
מיתר,31.32726,34.93855,https://he.wikipedia.org/wiki/מיתר_(יישוב)
מיטב,32.5457,35.30123,https://he.wikipedia.org/wiki/מיטב_(מושב)
מטולה,33.27918,35.5795,https://he.wikipedia.org/wiki/מטולה
מבשרת ציון,31.80186,35.15072,https://he.wikipedia.org/wiki/מבשרת_ציון
מבוא ביתר,31.72177,35.10669,https://he.wikipedia.org/wiki/מבוא_ביתר
מבוא דותן,32.42,35.17412,https://he.wikipedia.org/wiki/מבוא_דותן
מבוא חמה,32.73711,35.65537,https://he.wikipedia.org/wiki/מבוא_חמה
מבוא חורון,31.84923,35.0359,https://he.wikipedia.org/wiki/מבוא_חורון
מבוא מודיעים,31.93345,34.98703,https://he.wikipedia.org/wiki/מבוא_מודיעים
מבואות ים,32.40295,34.86827,https://he.wikipedia.org/wiki/מבואות_ים
מבואות יריחו,31.90728789107986,35.41784704945965,https://he.wikipedia.org/wiki/מבואות_יריחו
בית יתיר,31.36683,35.11166,https://he.wikipedia.org/wiki/בית_יתיר
מיצר,32.768454851671216 35.73623144229273,https://he.wikipedia.org/wiki/מיצר_(מושב)
מצר,32.44445,35.04134,https://he.wikipedia.org/wiki/מצר_(קיבוץ)
מעיליא,33.02781,35.25658,https://he.wikipedia.org/wiki/מעיליא
מדרך עוז,32.59517,35.15912,https://he.wikipedia.org/wiki/מדרך_עוז
מדרשת בן-גוריון,30.85154,34.7834,https://he.wikipedia.org/wiki/מדרשת_בן-גוריון
מגדל,32.67597,35.23986,https://he.wikipedia.org/wiki/מגדל_(יישוב)
מגדל העמק,32.67597,35.23986,https://he.wikipedia.org/wiki/מגדל_העמק
מגדל עוז,31.64043,35.14266,https://he.wikipedia.org/wiki/מגדל_עוז
מגדלים,32.08981,35.3422,https://he.wikipedia.org/wiki/מגדלים
מכמנים,32.90591,35.32815,https://he.wikipedia.org/wiki/מכמנים
מכמורת,32.40535,34.87091,https://he.wikipedia.org/wiki/מכמורת
מקוה ישראל,32.03016,34.78271,https://he.wikipedia.org/wiki/מקוה_ישראל
משגב עם,33.247770470628566,35.548592871740254,https://he.wikipedia.org/wiki/משגב_עם
משגב דב,31.81897,34.74012,https://he.wikipedia.org/wiki/משגב_דב
משמר איילון,31.8706,34.94112,https://he.wikipedia.org/wiki/משמר_איילון
משמר דוד,31.8228,34.90051,https://he.wikipedia.org/wiki/משמר_דוד
משמר העמק,32.61045,35.14227,https://he.wikipedia.org/wiki/משמר_העמק
משמר הנגב,31.36416,34.7187,https://he.wikipedia.org/wiki/משמר_הנגב
משמר השרון,32.35689,34.90359,https://he.wikipedia.org/wiki/משמר_השרון
משמר השבעה,32.010336933861616,34.823997702443684,https://he.wikipedia.org/wiki/משמר_השבעה
משמר הירדן,33.00333,35.59806,https://he.wikipedia.org/wiki/משמר_הירדן_(מושב)
משמרות,32.48718,34.98324,https://he.wikipedia.org/wiki/משמרות
משמרת,32.22818,34.91835,https://he.wikipedia.org/wiki/משמרת
מצפה אילן,32.46187239905103,35.06854849116732,https://he.wikipedia.org/wiki/מצפה_אילן
מבטחים,31.24174,34.40761,https://he.wikipedia.org/wiki/מבטחים_(מושב)
מצפה,32.78996,35.50926,https://he.wikipedia.org/wiki/מצפה_(יישוב)
"מצפה אבי""ב",32.83907,35.19921,"https://he.wikipedia.org/wiki/מצפה_אבי""ב"
מצפה נטופה,32.80287,35.38291,https://he.wikipedia.org/wiki/מצפה_נטופה
מצפה רמון,30.60944,34.80111,https://he.wikipedia.org/wiki/מצפה_רמון
מצפה שלם,31.58333,35.4,https://he.wikipedia.org/wiki/מצפה_שלם
מצפה יריחו,31.81672,35.39405,https://he.wikipedia.org/wiki/מצפה_יריחו
מזרע,32.65029,35.28563,https://he.wikipedia.org/wiki/מזרע
מודיעין עילית,31.935298743009664,35.04310049484712,https://he.wikipedia.org/wiki/מודיעין_עילית
מודיעין-מכבים-רעות,31.89385,35.01504,https://he.wikipedia.org/wiki/מודיעין-מכבים-רעות
מולדת,32.58613,35.44201,https://he.wikipedia.org/wiki/מולדת_(מפלגה)
מורן,32.91934,35.39663,https://he.wikipedia.org/wiki/מורן_(קיבוץ)
מורשת,32.82859,35.23466,https://he.wikipedia.org/wiki/מורשת_(יישוב_קהילתי)
מוצא עילית,31.79357,35.15776,https://he.wikipedia.org/wiki/מוצא_עילית
מע'אר,32.88984,35.40703,https://he.wikipedia.org/wiki/מע'אר
מוקייבלה,32.51424,35.29617,https://he.wikipedia.org/wiki/מוקייבלה
נעלה,31.96236,35.06553,https://he.wikipedia.org/wiki/נעלה
נען,31.884266015950736,34.85884596064934,https://he.wikipedia.org/wiki/נען
נערן,31.96677709232466,35.45489431200305,https://he.wikipedia.org/wiki/נערן
נאעורה,32.61403,35.39168,https://he.wikipedia.org/wiki/נאעורה
נעמה,31.907780896797572,35.46710307706837,https://he.wikipedia.org/wiki/נעמה_(מושב)
אשבל,32.87655,35.30553,https://he.wikipedia.org/wiki/אשבל_(קיבוץ)
חמדת,32.25187,35.52717,https://he.wikipedia.org/wiki/חמדת_(יישוב)
נחל עוז,31.47311,34.49829,https://he.wikipedia.org/wiki/נחל_עוז
שיטים,30.17705,35.0163,https://he.wikipedia.org/wiki/שיטים
נחלה,31.65883,34.79382,https://he.wikipedia.org/wiki/נחלה_(מושב)
נהלל,32.6904,35.19648,https://he.wikipedia.org/wiki/נהלל
נחליאל,31.96667,35.13333,https://he.wikipedia.org/wiki/נחליאל
נחם,31.76658,35.00371,https://he.wikipedia.org/wiki/נחם
נהריה,33.00892,35.09814,https://he.wikipedia.org/wiki/נהריה
נחף,32.93444,35.31679,https://he.wikipedia.org/wiki/נחף
נחשולים,32.61347,34.92022,https://he.wikipedia.org/wiki/נחשולים
נחשון,31.83117,34.95548,https://he.wikipedia.org/wiki/נחשון_(קיבוץ)
נחשונים,32.06188,34.95445,https://he.wikipedia.org/wiki/נחשונים
נטף,31.83194,35.06767,https://he.wikipedia.org/wiki/נטף
נטור,32.85353,35.75336,https://he.wikipedia.org/wiki/נטור
נווה,31.162471240288053,34.3281153518528,https://he.wikipedia.org/wiki/נווה_(מושב)
נצרת,32.70056,35.29722,https://he.wikipedia.org/wiki/נצרת
נאות גולן,32.78676,35.6934,https://he.wikipedia.org/wiki/נאות_גולן
נאות הכיכר,30.934116423787028,35.37838047988329,https://he.wikipedia.org/wiki/נאות_הכיכר
נאות מרדכי,33.16034,35.59663,https://he.wikipedia.org/wiki/נאות_מרדכי
הדסה נעורים,32.37639,34.86244,https://he.wikipedia.org/wiki/הדסה_נעורים
נגבה,31.66237,34.68324,https://he.wikipedia.org/wiki/נגבה
נגוהות,31.493,34.98308,https://he.wikipedia.org/wiki/נגוהות
נחלים,32.05874453586663,34.90984672284715,https://he.wikipedia.org/wiki/נחלים
נהורה,31.62276,34.70424,https://he.wikipedia.org/wiki/נהורה
נחושה,31.63064,34.9531,https://he.wikipedia.org/wiki/נחושה
נין,32.63063,35.34885,https://he.wikipedia.org/wiki/נין_(כפר)
נס עמים,32.96578,35.12123,https://he.wikipedia.org/wiki/נס_עמים
נס הרים,31.74547,35.0574,https://he.wikipedia.org/wiki/נס_הרים
נס ציונה,31.92933,34.79868,https://he.wikipedia.org/wiki/נס_ציונה
נשר,32.76622,35.04425,https://he.wikipedia.org/wiki/נשר_(עיר)
נטע,31.47755377396032,34.925468373796335,https://he.wikipedia.org/wiki/נטע
נטעים,31.944375401091143,34.77408457203296,https://he.wikipedia.org/wiki/נטעים
נתניה,32.33291,34.85992,https://he.wikipedia.org/wiki/נתניה
נתיב העשרה,31.57201,34.53955,https://he.wikipedia.org/wiki/נתיב_העשרה
נתיב הגדוד,31.98765,35.44405,https://he.wikipedia.org/wiki/נתיב_הגדוד
"נתיב הל""ה",31.68755,34.98272,"https://he.wikipedia.org/wiki/נתיב_הל""ה"
נתיב השיירה,32.99342,35.13538,https://he.wikipedia.org/wiki/נתיב_השיירה
נתיבות,31.42305,34.58911,https://he.wikipedia.org/wiki/נתיבות
נטועה,33.06464,35.3234,https://he.wikipedia.org/wiki/נטועה
חלמיש,32.00592776501156,35.12533059845665,https://he.wikipedia.org/wiki/נווה_צוף
"נווה אטי""ב",33.26228,35.74194,"https://he.wikipedia.org/wiki/נווה_אטי""ב"
נווה דניאל,31.67791546421014,35.14199560229686,https://he.wikipedia.org/wiki/נווה_דניאל
נווה איתן,32.49197,35.53271,https://he.wikipedia.org/wiki/נווה_איתן
נווה חריף,30.03769,35.03733,https://he.wikipedia.org/wiki/נווה_חריף
נווה אילן,31.80858,35.08029,https://he.wikipedia.org/wiki/נווה_אילן
נווה מיכאל,31.67298,35.00876,https://he.wikipedia.org/wiki/נווה_מיכאל
נווה מבטח,31.805602069746556,34.74110320679422,https://he.wikipedia.org/wiki/נווה_מבטח
נווה שלום,32.34845,34.85602,https://he.wikipedia.org/wiki/נווה_שלום
נווה אור,32.5888,35.55357,https://he.wikipedia.org/wiki/נווה_אור
נווה ים,32.66517,34.94011,https://he.wikipedia.org/wiki/נווה_ים
נווה ימין,32.17217,34.9393,https://he.wikipedia.org/wiki/נווה_ימין
נווה ירק,32.13247,34.92447,https://he.wikipedia.org/wiki/נווה_ירק
נווה זיו,33.02677,35.18448,https://he.wikipedia.org/wiki/נווה_זיו
נווה זוהר,31.15264,35.36534,https://he.wikipedia.org/wiki/נווה_זוהר
נצר חזני,31.81975262188072,34.86164231991773,https://he.wikipedia.org/wiki/נצר_חזני
נצר סרני,31.9232,34.82376,https://he.wikipedia.org/wiki/נצר_סרני
"ניל""י",31.96396,35.04853,https://he.wikipedia.org/wiki/נילי_(יישוב)
נמרוד,33.24525,35.75139,https://he.wikipedia.org/wiki/נמרוד
ניר עם,31.51959,34.58006,https://he.wikipedia.org/wiki/ניר_עם
ניר עקיבא,31.46994,34.64634,https://he.wikipedia.org/wiki/ניר_עקיבא
ניר בנים,31.67178,34.75482,https://he.wikipedia.org/wiki/ניר_בנים
ניר דוד,32.50406,35.45708,https://he.wikipedia.org/wiki/ניר_דוד_(תל-עמל)
ניר אליהו,32.19672,34.94921,https://he.wikipedia.org/wiki/ניר_אליהו
ניר עציון,32.69861,34.99448,https://he.wikipedia.org/wiki/ניר_עציון
ניר גלים,31.82542,34.68282,https://he.wikipedia.org/wiki/ניר_גלים
"ניר ח""ן",31.60901,34.71462,"https://he.wikipedia.org/wiki/ניר_ח""ן"
ניר משה,31.47812,34.63204,https://he.wikipedia.org/wiki/ניר_משה
ניר עוז,31.31017,34.4021,https://he.wikipedia.org/wiki/ניר_עוז
ניר יפה,32.56905,35.245,https://he.wikipedia.org/wiki/ניר_יפה
ניר ישראל,31.6881,34.6378,https://he.wikipedia.org/wiki/ניר_ישראל
ניר יצחק,31.23739,34.35743,https://he.wikipedia.org/wiki/ניר_יצחק
ניר צבי,31.95291,34.86408,https://he.wikipedia.org/wiki/ניר_צבי
נירים,31.33559,34.39507,https://he.wikipedia.org/wiki/נירים
נירית,32.14677,34.98622,https://he.wikipedia.org/wiki/נירית
ניצן,31.73854,34.62985,https://he.wikipedia.org/wiki/ניצן_(יישוב)
ניצן ב',31.735603894658283,34.63785989690533,https://he.wikipedia.org/wiki/ניצן_ב'
ניצנה,30.885439275840035,34.42302569560612,https://he.wikipedia.org/wiki/ניצנה
ניצני עוז,32.306,35.00374,https://he.wikipedia.org/wiki/ניצני_עוז
ניצני סיני,30.90418,34.39713,https://he.wikipedia.org/wiki/ניצני_סיני
ניצנים,31.716370254011903,34.63466049139258,https://he.wikipedia.org/wiki/ניצנים
נועם,31.567618026512203,34.78860561113105,https://he.wikipedia.org/wiki/נועם_(מושב)
נוף איילון,31.869677830321276,34.98892725928879,https://he.wikipedia.org/wiki/נוף_איילון
נוף הגליל,32.708150720402216,35.324993765592104,https://he.wikipedia.org/wiki/נוף_הגליל
נופך,32.04372,34.92066,https://he.wikipedia.org/wiki/נופך
נופים,32.15502133375595,35.09854005307348,https://he.wikipedia.org/wiki/נופים
נופית,32.76226,35.1477,https://he.wikipedia.org/wiki/נופית
נוגה,31.62485,34.6949,https://he.wikipedia.org/wiki/נוגה_(מושב)
נוקדים,31.646216281679532,35.245129420741726,https://he.wikipedia.org/wiki/נוקדים
נורדיה,32.3147,34.89617,https://he.wikipedia.org/wiki/נורדיה
נוב,32.83283,35.7836,https://he.wikipedia.org/wiki/נוב
נורית,32.54149,35.35749,https://he.wikipedia.org/wiki/נורית_(יישוב)
אודם,33.19423,35.74859,https://he.wikipedia.org/wiki/אודם_(מושב)
אופקים,31.3141,34.62025,https://he.wikipedia.org/wiki/אופקים
עופר,32.62257,34.98302,https://he.wikipedia.org/wiki/עופר_(מושב)
עפרה,31.95633,35.26008,https://he.wikipedia.org/wiki/עפרה
אוהד,31.23597,34.42937,https://he.wikipedia.org/wiki/אוהד
עולש,32.33199,34.98558,https://he.wikipedia.org/wiki/עולש_(מושב)
מרכז אומן,32.56257,35.24194,https://he.wikipedia.org/wiki/מרכז_אומן
עומר,31.26489,34.84766,https://he.wikipedia.org/wiki/עומר
אומץ,32.37016,34.99339,https://he.wikipedia.org/wiki/אומץ_(מושב)
אור עקיבא,32.5064,34.92087,https://he.wikipedia.org/wiki/אור_עקיבא
אור הגנוז,33.00514,35.44691,https://he.wikipedia.org/wiki/אור_הגנוז
אור הנר,31.55701,34.60202,https://he.wikipedia.org/wiki/אור_הנר
אור יהודה,32.02923,34.85788,https://he.wikipedia.org/wiki/אור_יהודה
אורה,31.75519,35.15613,https://he.wikipedia.org/wiki/אורה
אורנית,32.13165,34.99094,https://he.wikipedia.org/wiki/אורנית
אורות,31.74103,34.73517,https://he.wikipedia.org/wiki/אורות_(מושב)
אורטל,33.08854,35.75909,https://he.wikipedia.org/wiki/אורטל
עתניאל,31.438786616472015,35.02868521722317,https://he.wikipedia.org/wiki/עתניאל
עוצם,31.638394724337818,34.70030510646304,https://he.wikipedia.org/wiki/עוצם
"פעמי תש""ז",31.43928,34.69478,https://he.wikipedia.org/wiki/פעמי_תשז
פלמחים,31.93334,34.70596,https://he.wikipedia.org/wiki/פלמחים
פארן,30.363457714948364,35.15636097299897,https://he.wikipedia.org/wiki/פארן
פרדס חנה-כרכור,32.47408,34.97781,https://he.wikipedia.org/wiki/פרדס_חנה-כרכור
פרדסיה,32.30577,34.90911,https://he.wikipedia.org/wiki/פרדסיה
פרוד,32.93269,35.43379,https://he.wikipedia.org/wiki/פרוד_(קיבוץ)
פטיש,31.32794,34.55906,https://he.wikipedia.org/wiki/פטיש_(מושב)
פדיה,31.85853,34.88391,https://he.wikipedia.org/wiki/פדיה
פדואל,32.06241,35.05321,https://he.wikipedia.org/wiki/פדואל
פדויים,31.32714,34.61189,https://he.wikipedia.org/wiki/פדויים
פלך,32.93381,35.23365,https://he.wikipedia.org/wiki/פלך_(קיבוץ)
פקיעין,32.97747,35.33345,https://he.wikipedia.org/wiki/פקיעין
פקיעין החדשה,32.983539295735106,35.3221116138584,https://he.wikipedia.org/wiki/פקיעין_החדשה
פרזון,32.54539,35.31081,https://he.wikipedia.org/wiki/פרזון
פרי גן,31.2214,34.35572,https://he.wikipedia.org/wiki/פרי_גן
פסגות,31.89904,35.22417,https://he.wikipedia.org/wiki/פסגות
פתח תקווה,32.08707,34.88747,https://he.wikipedia.org/wiki/פתח_תקווה
פתחיה,31.86788,34.88621,https://he.wikipedia.org/wiki/פתחיה
פצאל,32.04412,35.4424,https://he.wikipedia.org/wiki/פצאל
פורת,32.27626,34.94874,https://he.wikipedia.org/wiki/פורת
פוריה עילית,32.7319,35.54635,https://he.wikipedia.org/wiki/פוריה_עילית
פוריה - כפר עבודה,32.71982,35.54667,https://he.wikipedia.org/wiki/פוריה_-_כפר_עבודה
פוריה - נווה עובד,32.74311,35.53816,https://he.wikipedia.org/wiki/פוריה_-_נווה_עובד
קבועה,31.225159486603708,35.21561224342021,https://he.wikipedia.org/wiki/קבועה
קדרים,32.89793780812645,35.471118128471986,https://he.wikipedia.org/wiki/קדרים
קדימה-צורן,32.28057678590419,34.911659543232744,https://he.wikipedia.org/wiki/קדימה-צורן
קלנסווה,32.28493,34.98106,https://he.wikipedia.org/wiki/קלנסווה
קליה,31.74925,35.46595,https://he.wikipedia.org/wiki/קליה_(קיבוץ)
קרני שומרון,32.16667,35.08333,https://he.wikipedia.org/wiki/קרני_שומרון
קציר,32.4842980791197,35.10593315726256,https://he.wikipedia.org/wiki/קציר_(יישוב)
קצרין,32.99194,35.69139,https://he.wikipedia.org/wiki/קצרין
קדר,31.753817023006086,35.30792443463809,https://he.wikipedia.org/wiki/קדר_(שבט_וממלכה)
קדמה,31.70101,34.77507,https://he.wikipedia.org/wiki/קדמה
קדומים,32.21427282497905,35.15921032074375,https://he.wikipedia.org/wiki/קדומים
קלע אלון,33.13271431710397,35.683790579692676,https://he.wikipedia.org/wiki/קלע_אלון
קלחים,31.45077,34.67768,https://he.wikipedia.org/wiki/קלחים
קיסריה,32.50770647609252,34.90334139756289,https://he.wikipedia.org/wiki/קיסריה
קשת,32.98010763157696,35.8080627076091,https://he.wikipedia.org/wiki/קשת
קטורה,29.970412464415862,35.05964185611794,https://he.wikipedia.org/wiki/קטורה
קבוצת יבנה,31.81555,34.7208,https://he.wikipedia.org/wiki/קבוצת_יבנה
קדמת צבי,33.02997,35.69784,https://he.wikipedia.org/wiki/קדמת_צבי
קדרון,31.81405,34.79714,https://he.wikipedia.org/wiki/קדרון
קריית ענבים,31.81082,35.12035,https://he.wikipedia.org/wiki/קריית_ענבים
קריית ארבע,31.52838,35.11897,https://he.wikipedia.org/wiki/קריית_ארבע
קריית אתא,32.81149,35.11323,https://he.wikipedia.org/wiki/קריית_אתא
קריית ביאליק,32.8275,35.08583,https://he.wikipedia.org/wiki/קריית_ביאליק
קריית עקרון,31.86119,34.82275,https://he.wikipedia.org/wiki/קריית_עקרון
קריית גת,31.60998,34.76422,https://he.wikipedia.org/wiki/קריית_גת
קריית מלאכי,31.72888,34.74632,https://he.wikipedia.org/wiki/קריית_מלאכי
קריית מוצקין,32.83706,35.0776,https://he.wikipedia.org/wiki/קריית_מוצקין
קריית נטפים,32.117660276960606,35.11137351599848,https://he.wikipedia.org/wiki/קריית_נטפים
קריית אונו,32.060786570674985,34.85037505869184,https://he.wikipedia.org/wiki/קריית_אונו
קריית שמונה,33.20733,35.57212,https://he.wikipedia.org/wiki/קריית_שמונה
קריית טבעון,32.71618,35.12494,https://he.wikipedia.org/wiki/קריית_טבעון
קריית ים,32.84966,35.06973,https://he.wikipedia.org/wiki/קריית_ים
קריית יערים,31.803,35.102,https://he.wikipedia.org/wiki/קריית_יערים
קוממיות,3131.664556916521068,34.726202175256354,https://he.wikipedia.org/wiki/קוממיות
קורנית,32.84388,35.25179,https://he.wikipedia.org/wiki/קורנית_(יישוב)
רעננה,32.1836,34.87386,https://he.wikipedia.org/wiki/רעננה
רהט,31.39547,34.75699,https://he.wikipedia.org/wiki/רהט
רם-און,32.52787,35.25774,https://he.wikipedia.org/wiki/רם-און
רמת דוד,32.67845,35.20325,https://he.wikipedia.org/wiki/רמת_דוד
רמת גן,32.08227,34.81065,https://he.wikipedia.org/wiki/רמת_גן
רמת הכובש,32.21768,34.93815,https://he.wikipedia.org/wiki/רמת_הכובש
רמת השרון,32.14613,34.8394,https://he.wikipedia.org/wiki/רמת_השרון
רמת השופט,32.61102,35.09472,https://he.wikipedia.org/wiki/רמת_השופט
רמת מגשימים,32.84473,35.80822,https://he.wikipedia.org/wiki/רמת_מגשימים
רמת רחל,31.73333,35.21667,https://he.wikipedia.org/wiki/רמת_רחל
רמת רזיאל,31.7737,35.07301,https://he.wikipedia.org/wiki/רמת_רזיאל
רמת ישי,32.70444,35.1707,https://he.wikipedia.org/wiki/רמת_ישי
רמת יוחנן,32.79308,35.12226,https://he.wikipedia.org/wiki/רמת_יוחנן
רמת צבי,32.59078,35.41533,https://he.wikipedia.org/wiki/רמת_צבי
ראמה,32.93844,35.3675,https://he.wikipedia.org/wiki/ראמה_(יישוב)
רמלה,31.92923,34.86563,https://he.wikipedia.org/wiki/רמלה
רמות אלון,31.814593423348875,35.19922067851967,https://he.wikipedia.org/wiki/רמות_אלון
רמות השבים,32.16372,34.88761,https://he.wikipedia.org/wiki/רמות_השבים
רמות מאיר,31.87572,34.85639,https://he.wikipedia.org/wiki/רמות_מאיר
רמות מנשה,32.59784,35.05656,https://he.wikipedia.org/wiki/רמות_מנשה_(קיבוץ)
רמות נפתלי,33.10149,35.55321,https://he.wikipedia.org/wiki/רמות_נפתלי
רנן,31.33773,34.60069,https://he.wikipedia.org/wiki/רנן
רקפת,32.85532669922175,35.26328463544005,https://he.wikipedia.org/wiki/רקפת_(יישוב)
ראס אל-עין,32.915681069467446,35.37271900400904,https://he.wikipedia.org/wiki/ראס_אל-עין_(הגליל)
ראס עלי,32.77274,35.15521,https://he.wikipedia.org/wiki/ראס_עלי
רביד,32.85208,35.46389,https://he.wikipedia.org/wiki/רביד
רעים,31.384725807209854,34.45772692885548,https://he.wikipedia.org/wiki/רעים
רגבים,32.52391,35.03412,https://he.wikipedia.org/wiki/רגבים
רגבה,32.97721,35.09864,https://he.wikipedia.org/wiki/רגבה
ריחן,32.46912848954823,35.13433286007826,https://he.wikipedia.org/wiki/ריחן_(מושב)
רחלים,32.102604497322936,35.2575842757755,https://he.wikipedia.org/wiki/רחלים
רחוב,32.45047,35.49169,https://he.wikipedia.org/wiki/רחוב_(מושב)
רחובות,31.89421,34.81199,https://he.wikipedia.org/wiki/רחובות
ריחאניה,33.05003433705321,35.48723302646286,https://he.wikipedia.org/wiki/ריחאניה
ריינה,32.724462960324246,35.31104317624108,https://he.wikipedia.org/wiki/ריינה
רכסים,32.74907,35.09901,https://he.wikipedia.org/wiki/רכסים
רשפים,32.48126,35.4762,https://he.wikipedia.org/wiki/רשפים
רתמים,31.05464,34.68969,https://he.wikipedia.org/wiki/רתמים
רבדים,31.77342,34.81661,https://he.wikipedia.org/wiki/רבדים
רבבה,32.11926,35.12896,https://he.wikipedia.org/wiki/רבבה
רביבים,31.04395,34.72183,https://he.wikipedia.org/wiki/רביבים
רווחה,31.65,34.73333,https://he.wikipedia.org/wiki/רווחה_(מושב)
רוויה,32.44885,35.47333,https://he.wikipedia.org/wiki/רוויה_(מושב)
רימונים,31.93406,35.34091,https://he.wikipedia.org/wiki/רימונים
רינתיה,32.04428,34.9276,https://he.wikipedia.org/wiki/רינתיה
ראשון לציון,31.97102,34.78939,https://he.wikipedia.org/wiki/ראשון_לציון
רשפון,32.20254,34.82322,https://he.wikipedia.org/wiki/רשפון
רועי,32.248234993234476,35.48926536053221,https://he.wikipedia.org/wiki/רועי_(מושב)
ראש העין,32.09556,34.95664,https://he.wikipedia.org/wiki/ראש_העין
ראש פינה,32.96894,35.54258,https://he.wikipedia.org/wiki/ראש_פינה
ראש צורים,31.66796,35.12634,https://he.wikipedia.org/wiki/ראש_צורים
רותם,32.336889161513085,35.51840427593722,https://he.wikipedia.org/wiki/רותם_(יישוב)
רוחמה,31.497549450982454,34.703850339176114,https://he.wikipedia.org/wiki/רוחמה
רומת אל-הייב,32.77802,35.30571,https://he.wikipedia.org/wiki/רומת_אל-הייב
רומאנה,32.78783,35.31091,https://he.wikipedia.org/wiki/רומאנה
סעד,31.47142,34.53465,https://he.wikipedia.org/wiki/סעד
סער,33.029273434488076,35.109221050546026,https://he.wikipedia.org/wiki/סער
סאג'ור,32.94305380507958,35.3419913422376,https://he.wikipedia.org/wiki/סאג'ור
סח'נין,32.86422,35.29707,https://he.wikipedia.org/wiki/סח'נין
סלעית,32.24295,35.05272,https://he.wikipedia.org/wiki/סלעית_(מושב)
סלאמה,32.89443,35.36931,https://he.wikipedia.org/wiki/סלאמה_(הגליל)
סמר,29.8319637429632,35.02229896508254,https://he.wikipedia.org/wiki/סמר
סנדלה,32.52234,35.32325,https://he.wikipedia.org/wiki/סנדלה
ספיר,30.614437303840187,35.185788387587586,https://he.wikipedia.org/wiki/ספיר_(יישוב)
שריד,32.66429610120229,35.224088058421714,https://he.wikipedia.org/wiki/שריד
סאסא,33.02743097038275,35.392288224900724,https://he.wikipedia.org/wiki/סאסא
סביון,32.04966,34.8777,https://he.wikipedia.org/wiki/סביון_(יישוב)
סייד,31.28252,34.91505,https://he.wikipedia.org/wiki/סייד
שדי אברהם,31.21236,34.33623,https://he.wikipedia.org/wiki/שדי_אברהם
שדה בוקר,30.87382,34.79246,https://he.wikipedia.org/wiki/שדה_בוקר
שדה דוד,31.57638,34.68429,https://he.wikipedia.org/wiki/שדה_דוד
שדה אליעזר,33.04606,35.56466,https://he.wikipedia.org/wiki/שדה_אליעזר
שדה אליהו,32.43946,35.5127,https://he.wikipedia.org/wiki/שדה_אליהו
שדי חמד,32.16043,34.94347,https://he.wikipedia.org/wiki/שדי_חמד
שדה אילן,32.74888,35.42185,https://he.wikipedia.org/wiki/שדה_אילן
שדה משה,31.611599448560806,34.799797914931695,https://he.wikipedia.org/wiki/שדה_משה
שדה נחום,32.52562,35.48094,https://he.wikipedia.org/wiki/שדה_נחום
שדה נחמיה,33.18756,35.62235,https://he.wikipedia.org/wiki/שדה_נחמיה
שדה ניצן,31.23016,34.41925,https://he.wikipedia.org/wiki/שדה_ניצן
שדי תרומות,32.44167,35.4875,https://he.wikipedia.org/wiki/שדי_תרומות
שדה עוזיהו,31.75727724789343,34.677817801181114,https://he.wikipedia.org/wiki/שדה_עוזיהו
שדה ורבורג,32.20361,34.90722,https://he.wikipedia.org/wiki/שדה_ורבורג
שדה יעקב,32.69,35.13861,https://he.wikipedia.org/wiki/שדה_יעקב
שדה יצחק,32.4,35,https://he.wikipedia.org/wiki/שדה_יצחק
שדה יואב,31.64594111395199,34.67620343490916,https://he.wikipedia.org/wiki/שדה_יואב
שדה צבי,31.44861,34.71298,https://he.wikipedia.org/wiki/שדה_צבי
שדרות,31.525,34.59693,https://he.wikipedia.org/wiki/שדרות
שדות מיכה,31.7213,34.92027,https://he.wikipedia.org/wiki/שדות_מיכה
שדות ים,32.49213,34.89224,https://he.wikipedia.org/wiki/שדות_ים
שגב שלום,31.20008371127222,34.84068344994173,https://he.wikipedia.org/wiki/שגב_שלום
סגולה,31.6709,34.77975,https://he.wikipedia.org/wiki/סגולה_(מושב)
שניר,33.242811153878556,35.67711863834165,https://he.wikipedia.org/wiki/שניר
שעב,32.89576975765044,35.22826542662585,https://he.wikipedia.org/wiki/שעב
שעל,33.11681,35.71789,https://he.wikipedia.org/wiki/שעל
שעלבים,31.86996,34.98722,https://he.wikipedia.org/wiki/שעלבים
שער אפרים,32.29067,34.9984,https://he.wikipedia.org/wiki/שער_אפרים
שער העמקים,32.7231,35.11136,https://he.wikipedia.org/wiki/שער_העמקים
שער הגולן,32.68669,35.60402,https://he.wikipedia.org/wiki/שער_הגולן
שער שומרון,32.122159959184835,35.025935914805736,https://he.wikipedia.org/wiki/שער_שומרון
שדמות דבורה,32.69706,35.4367,https://he.wikipedia.org/wiki/שדמות_דבורה
שדמות מחולה,32.34788,35.53215,https://he.wikipedia.org/wiki/שדמות_מחולה
שפיר,31.69686,34.72971,https://he.wikipedia.org/wiki/שפיר
שחר,31.61955161546384,34.722304425997024,https://he.wikipedia.org/wiki/שחר_(מושב)
שחרית,32.082834,35.076495,https://he.wikipedia.org/wiki/שחרית_(יישוב)
שחרות,29.90395,34.9985,https://he.wikipedia.org/wiki/שחרות
שלווה,31.56468,34.76855,https://he.wikipedia.org/wiki/שלווה_(מושב)
שמרת,32.95155,35.09497,https://he.wikipedia.org/wiki/שמרת
שמיר,33.1746,35.6521,https://he.wikipedia.org/wiki/שמיר_(קיבוץ)
שני,31.35598,35.0695,https://he.wikipedia.org/wiki/שני_(יישוב)
שקד,32.474097202052604,35.167197593956026,https://he.wikipedia.org/wiki/שקד_(יישוב)
שרשרת,31.40298874235659,34.6010948010697,https://he.wikipedia.org/wiki/שרשרת_(מושב)
שבי דרום,31.466193065146243,34.639262582209234,https://he.wikipedia.org/wiki/שבי_דרום
שבי שומרון,32.26372,35.18482,https://he.wikipedia.org/wiki/שבי_שומרון
שבי ציון,32.98098,35.08331,https://he.wikipedia.org/wiki/שבי_ציון
שאר ישוב,33.22957,35.6484,https://he.wikipedia.org/wiki/שאר_ישוב
שדמה,31.83439,34.74366,https://he.wikipedia.org/wiki/שדמה_(מושב)
שפרעם,32.80583,35.16895,https://he.wikipedia.org/wiki/שפרעם
שפיים,32.21743,34.82454,https://he.wikipedia.org/wiki/שפיים
שפר,32.94374,35.4361,https://he.wikipedia.org/wiki/שפר
שיח' דנון,32.9941,35.14805,https://he.wikipedia.org/wiki/שיח'_דנון
שכניה,32.8402,35.24438,https://he.wikipedia.org/wiki/שכניה
שלומי,33.07216,35.14452,https://he.wikipedia.org/wiki/שלומי
שלוחות,32.47152,35.48141,https://he.wikipedia.org/wiki/שלוחות
שקף,31.51656,34.93783,https://he.wikipedia.org/wiki/שקף
שתולה,33.0852,35.3149,https://he.wikipedia.org/wiki/שתולה
שתולים,31.77354,34.68388,https://he.wikipedia.org/wiki/שתולים
שיזף,31.001139843018287,34.766037228672474,https://he.wikipedia.org/wiki/שיזף_(יישוב)
שזור,32.93221324883368,35.35270096850247,https://he.wikipedia.org/wiki/שזור
שיבולים,31.39623,34.6079,https://he.wikipedia.org/wiki/שיבולים
שבלי,32.69385215677767,35.39729430147812,https://he.wikipedia.org/wiki/שבלי
שילת,31.91931,35.01763,https://he.wikipedia.org/wiki/שילת
שילה,32.053266069858346,35.30258585803524,https://he.wikipedia.org/wiki/שילה_(יישוב)
שמעה,31.387308979916327,35.01209679230182,https://he.wikipedia.org/wiki/שמעה
שמשית,32.73137,35.24409,https://he.wikipedia.org/wiki/שמשית
שזפון,30.06195,35.02803,https://he.wikipedia.org/wiki/שזפון
שלומית,31.16862078177946,34.30450051584373,https://he.wikipedia.org/wiki/שלומית_(יישוב)
שואבה,31.79867,35.07764,https://he.wikipedia.org/wiki/שואבה
שוהם,31.99866,34.94559,https://he.wikipedia.org/wiki/שוהם_(יישוב)
שומרה,33.08275,35.28378,https://he.wikipedia.org/wiki/שומרה_(מושב)
שומריה,31.43223,34.88432,https://he.wikipedia.org/wiki/שומריה_(קיבוץ)
שוקדה,31.42218,34.52392,https://he.wikipedia.org/wiki/שוקדה
שורשים,32.89385194445994,35.257904807390005,https://he.wikipedia.org/wiki/שורשים
שורש,31.79711,35.06525,https://he.wikipedia.org/wiki/שורש_(מושב)
שושנת העמקים,32.35409,34.85688,https://he.wikipedia.org/wiki/שושנת_העמקים_(יישוב)
שובל,31.41337,34.74378,https://he.wikipedia.org/wiki/שובל_(קיבוץ)
שובה,31.45094,34.54404,https://he.wikipedia.org/wiki/שובה
סתריה,31.89238,34.8438,https://he.wikipedia.org/wiki/סתריה
סופה,31.2366,34.34099,https://he.wikipedia.org/wiki/סופה_(קיבוץ)
סולם,32.60752047716284,35.33391483605231,https://he.wikipedia.org/wiki/סולם_(יישוב)
סוסיא,31.39116,35.11368,https://he.wikipedia.org/wiki/סוסיא_(יישוב)
תעוז,31.8015378827111,34.97209942045033,https://he.wikipedia.org/wiki/תעוז
טל שחר,31.80469,34.90111,https://he.wikipedia.org/wiki/טל_שחר
טל-אל,32.92825,35.18128,https://he.wikipedia.org/wiki/טל-אל
תלמי ביל"ו,31.43807,34.64487,https://he.wikipedia.org/wiki/תלמי_ביל"ו
תלמי אלעזר,32.44566,34.97717,https://he.wikipedia.org/wiki/תלמי_אלעזר
תלמי אליהו,31.22903,34.42895,https://he.wikipedia.org/wiki/תלמי_אליהו
תלמי יפה,31.61734,34.61273,https://he.wikipedia.org/wiki/תלמי_יפה
תלמי יחיאל,31.7521,34.76316,https://he.wikipedia.org/wiki/תלמי_יחיאל
תלמי יוסף,31.19975,34.36321,https://he.wikipedia.org/wiki/תלמי_יוסף
טלמון,31.93927,35.13539,https://he.wikipedia.org/wiki/טלמון
טמרה,32.85301,35.1987,https://he.wikipedia.org/wiki/טמרה
טמרה (יזרעאל),32.634381404418086,35.40235350793677,https://he.wikipedia.org/wiki/טמרה_(יזרעאל)
תראבין א-צאנע,31.344761281166996,34.73750708410883,https://he.wikipedia.org/wiki/תראבין_א-צאנע
תרום,31.78289,34.98096,https://he.wikipedia.org/wiki/תרום
טייבה,32.26616,35.00893,https://he.wikipedia.org/wiki/טייבה
תאשור,31.37194,34.64359,https://he.wikipedia.org/wiki/תאשור
טפחות,32.86791,35.42402,https://he.wikipedia.org/wiki/טפחות_(מושב)
תל עדשים,32.65627,35.30216,https://he.wikipedia.org/wiki/תל_עדשים
עיריית תל אביב-יפו,32.08088,34.78057,https://he.wikipedia.org/wiki/עיריית_תל_אביב-יפו
תל מונד,32.24995,34.91737,https://he.wikipedia.org/wiki/תל_מונד
תל קציר,32.70545,35.61761,https://he.wikipedia.org/wiki/תל_קציר
תל שבע,31.24864,34.86007,https://he.wikipedia.org/wiki/תל_שבע
תל תאומים,32.44241,35.49517,https://he.wikipedia.org/wiki/תל_תאומים
תל ציון,31.880120992725356,35.23931151371359,https://he.wikipedia.org/wiki/תל_ציון
תל יצחק,32.25327,34.87034,https://he.wikipedia.org/wiki/תל_יצחק
תל יוסף,32.55646,35.39919,https://he.wikipedia.org/wiki/תל_יוסף
טללים,30.99268,34.77035,https://he.wikipedia.org/wiki/טללים
תלמים,31.56471,34.67177,https://he.wikipedia.org/wiki/תלמים
תלם,31.564560558803063,35.02961116933839,https://he.wikipedia.org/wiki/תלם
תנובות,32.30451,34.96158,https://he.wikipedia.org/wiki/תנובות
תוקוע,31.65406,35.22822,https://he.wikipedia.org/wiki/תוקוע
תקומה,31.44984,34.57816,https://he.wikipedia.org/wiki/תקומה
טבריה,32.79221,35.53124,https://he.wikipedia.org/wiki/טבריה
תדהר,31.37899,34.62961,https://he.wikipedia.org/wiki/תדהר
תפרח,31.32657,34.67689,https://he.wikipedia.org/wiki/תפרח
תימורים,31.71534,34.76127,https://he.wikipedia.org/wiki/תימורים
תמרת,32.70302,35.22359,https://he.wikipedia.org/wiki/תמרת
טירת כרמל,32.76021,34.97183,https://he.wikipedia.org/wiki/טירת_כרמל
טירת יהודה,32.01392,34.9342,https://he.wikipedia.org/wiki/טירת_יהודה
טירת צבי,32.42124,35.52831,https://he.wikipedia.org/wiki/טירת_צבי
טירה,3232.79112621322431,34.96414558465156,https://he.wikipedia.org/wiki/טירה_(עיר)
תירוש,31.74995,34.88634,https://he.wikipedia.org/wiki/תירוש_(מושב)
תומר,32.02060451740692,35.43769314447714,https://he.wikipedia.org/wiki/תומר_(מושב)
רמת טראמפ,33.13244208449572,35.69242762915256,https://he.wikipedia.org/wiki/רמת_טראמפ
טובא-זנגרייה,32.96606,35.59304,https://he.wikipedia.org/wiki/טובא-זנגרייה
טורעאן,32.7801623604073,35.388083602028374,https://he.wikipedia.org/wiki/טורעאן
תושיה,31.43327,34.54109,https://he.wikipedia.org/wiki/תושיה_(יישוב)
תובל,32.92859,35.24501,https://he.wikipedia.org/wiki/תובל
אודים,32.26496,34.84549,https://he.wikipedia.org/wiki/אודים
אום אל-פחם,32.51725,35.15349,https://he.wikipedia.org/wiki/אום_אל-פחם
אום אל-קוטוף,32.46999094402891,35.057146551136825,https://he.wikipedia.org/wiki/אום_אל-קוטוף
אום בטין,31.27735,34.88246,https://he.wikipedia.org/wiki/אום_בטין
אורים,31.30433,34.52328,https://he.wikipedia.org/wiki/אורים
אושה,32.79509,35.11511,https://he.wikipedia.org/wiki/אושה
עוזה,31.593,34.76483,https://he.wikipedia.org/wiki/עוזה
עוזייר,32.79212,35.32984,https://he.wikipedia.org/wiki/עוזייר
ורדון,31.6569,34.77693,https://he.wikipedia.org/wiki/ורדון
ורד יריחו,31.81667,35.43333,https://he.wikipedia.org/wiki/ורד_יריחו
יעד,32.87953,35.24166,https://he.wikipedia.org/wiki/יעד
יערה,33.06755,35.18704,https://he.wikipedia.org/wiki/יערה
יד בנימין,31.7974,34.82083,https://he.wikipedia.org/wiki/יד_בנימין
יד חנה,32.32561,35.00745,https://he.wikipedia.org/wiki/יד_חנה
יד השמונה,31.80993,35.08959,https://he.wikipedia.org/wiki/יד_השמונה
יד מרדכי,31.58902,34.55815,https://he.wikipedia.org/wiki/יד_מרדכי
יד נתן,31.65397,34.70452,https://he.wikipedia.org/wiki/יד_נתן
"יד רמב""ם",31.89997,34.90027,"https://he.wikipedia.org/wiki/יד_רמב""ם"
יפיע,32.68923,35.27832,https://he.wikipedia.org/wiki/יפיע
יפית,32.06307,35.4744,https://he.wikipedia.org/wiki/יפית
יגל,31.98775,34.88026,https://he.wikipedia.org/wiki/יגל
יגור,32.7421,35.0774,https://he.wikipedia.org/wiki/יגור
יהל,30.08364,35.12817,https://he.wikipedia.org/wiki/יהל
יכיני,31.48274,34.59911,https://he.wikipedia.org/wiki/יכיני
יאנוח-ג'ת,32.98515,35.2491,https://he.wikipedia.org/wiki/יאנוח-ג'ת
ינוב,32.30627,34.9503,https://he.wikipedia.org/wiki/ינוב
יקיר,32.14746984791234,35.11235037046033,https://he.wikipedia.org/wiki/יקיר
יקום,32.24895,34.84323,https://he.wikipedia.org/wiki/יקום_(קיבוץ)
ירדנה,32.565183890545256,35.56277895786867,https://he.wikipedia.org/wiki/ירדנה
ירחיב,32.15239,34.9679,https://he.wikipedia.org/wiki/ירחיב
ירקונה,32.14599,34.89848,https://he.wikipedia.org/wiki/ירקונה
יסעור,32.90038,35.16578,https://he.wikipedia.org/wiki/יסעור_(קיבוץ)
ישרש,31.91481,34.84911,https://he.wikipedia.org/wiki/ישרש
יתד,31.20648,34.32757,https://he.wikipedia.org/wiki/יתד
יבנה,31.87808,34.73983,https://he.wikipedia.org/wiki/יבנה
יבנאל,32.70619,35.50435,https://he.wikipedia.org/wiki/יבנאל
יציץ,31.86396,34.8614,https://he.wikipedia.org/wiki/יציץ
יעף,32.267431351948524,34.96644502938281,https://he.wikipedia.org/wiki/יעף
ידידה,31.812681238910997,35.10446727557654,https://he.wikipedia.org/wiki/ידידה
כפר ידידיה,32.34627,34.89936,https://he.wikipedia.org/wiki/כפר_ידידיה
יחיעם,32.99720535587646,35.218837185732816,https://he.wikipedia.org/wiki/יחיעם
יהוד,32.03234514020089,34.880465275009264,https://he.wikipedia.org/wiki/יהוד
ירוחם,30.98822,34.93176,https://he.wikipedia.org/wiki/ירוחם
ישע,31.24729,34.40276,https://he.wikipedia.org/wiki/ישע
יסודות,31.81479,34.86559,https://he.wikipedia.org/wiki/יסודות_(מושב)
יסוד המעלה,33.0592,35.61033,https://he.wikipedia.org/wiki/יסוד_המעלה
יבול,31.18893,34.31706,https://he.wikipedia.org/wiki/יבול_(מושב)
יפעת,32.6775,35.22333,https://he.wikipedia.org/wiki/יפעת
יפתח,33.12884,35.55231,https://he.wikipedia.org/wiki/יפתח_(קיבוץ)
ינון,31.74199,34.78229,https://he.wikipedia.org/wiki/ינון_(מושב)
יראון,33.07757,35.4546,https://he.wikipedia.org/wiki/יראון
ירכא,32.95435,35.21197,https://he.wikipedia.org/wiki/ירכא
ישעי,31.751464018801812,34.96396103444546,https://he.wikipedia.org/wiki/ישעי
ייט"ב,31.94704,35.42341,https://he.wikipedia.org/wiki/ייט"ב
יצהר,32.16890587010234,35.23492605650536,https://he.wikipedia.org/wiki/יצהר
יזרעאל,32.561027056102006,35.32222941784869,https://he.wikipedia.org/wiki/יזרעאל_(קיבוץ)
יודפת,32.83808,35.27157,https://he.wikipedia.org/wiki/יודפת
יונתן,32.939354173187716,35.79553672622119,https://he.wikipedia.org/wiki/יונתן_(מושב)
יקנעם עילית,32.65385,35.10382,https://he.wikipedia.org/wiki/יקנעם_עילית
יקנעם,32.65947548102059,35.115159816339634,https://he.wikipedia.org/wiki/יקנעם_(מושבה)
יושיביה,31.44397,34.60949,https://he.wikipedia.org/wiki/יושיביה
יטבתה,29.9062,35.0667,https://he.wikipedia.org/wiki/יטבתה
יובל,33.24171852849419,35.59579651675942,https://he.wikipedia.org/wiki/יובל_(מושב)
יובלים,32.87756,35.27031,https://he.wikipedia.org/wiki/יובלים
צפרירים,31.66079,34.94371,https://he.wikipedia.org/wiki/צפרירים
צפריה,32.00354,34.85588,https://he.wikipedia.org/wiki/צפריה
זנוח,31.73236,34.99967,https://he.wikipedia.org/wiki/זנוח
זרזיר,32.725563462606374,35.21962359704789,https://he.wikipedia.org/wiki/זרזיר_(יישוב)
זבדיאל,31.65837,34.7612,https://he.wikipedia.org/wiki/זבדיאל
צאלים,31.20286818027423,34.534944629579336,https://he.wikipedia.org/wiki/צאלים
צפת,32.96465,35.496,https://he.wikipedia.org/wiki/צפת
זכריה,31.70927,34.94488,https://he.wikipedia.org/wiki/זכריה_(מושב)
צלפון,31.80462,34.9321,https://he.wikipedia.org/wiki/צלפון
זמר,32.36407879356108,35.02446896169502,https://he.wikipedia.org/wiki/זמר_(יישוב)
זרחיה,31.68223,34.74524,https://he.wikipedia.org/wiki/זרחיה
זרועה,31.458836993454298,34.622531037246,https://he.wikipedia.org/wiki/זרועה
צרופה,32.64824,34.94991,https://he.wikipedia.org/wiki/צרופה
זיתן,31.97534,34.88928,https://he.wikipedia.org/wiki/זיתן
זכרון יעקב,32.56645,34.95628,https://he.wikipedia.org/wiki/זכרון_יעקב
זמרת,31.44784,34.55401,https://he.wikipedia.org/wiki/זמרת_(מושב)
ציפורי,32.74535,35.28003,https://he.wikipedia.org/wiki/ציפורי_(יישוב_עתיק)
זיקים,31.62657,34.55095,https://he.wikipedia.org/wiki/זיקים
צבעון,33.02651463269872,35.416304235470164,https://he.wikipedia.org/wiki/צבעון
צופר,30.56089229733331,35.181589918098894,https://he.wikipedia.org/wiki/צופר_(מושב)
צופית,32.19423,34.91957,https://he.wikipedia.org/wiki/צופית_(מושב)
זוהר,31.59573949688889,34.691324709041766,https://he.wikipedia.org/wiki/זוהר_(מושב)
צרעה,31.762720577514536,34.96854685456437,https://he.wikipedia.org/wiki/צרעה_(קיבוץ)
צובה,31.78634,35.12574,https://he.wikipedia.org/wiki/צובה
צופים,32.19782,35.00914,https://he.wikipedia.org/wiki/צופים_(יישוב)
צור הדסה,31.71912,35.09708,https://he.wikipedia.org/wiki/צור_הדסה
צור משה,32.29819,34.91313,https://he.wikipedia.org/wiki/צור_משה
צור נתן,32.240434678532736,35.01130012968591,https://he.wikipedia.org/wiki/צור_נתן
צור יצחק,32.24146312309636,34.99781773055944,https://he.wikipedia.org/wiki/צור_יצחק
צוריאל,33.00681,35.31361,https://he.wikipedia.org/wiki/צוריאל
צורית,32.9017,35.25295,https://he.wikipedia.org/wiki/צורית
